"geonameid","name","asciiname","alternatenames","latitude","longitude","feature_class","feature_code"
1529079,"Wutonggou","Wutonggou","Khuduk Utungou,Utungou Well,Wu-t'ung-kou,Wu-t’ung-kou,Wutonggou,wu tong gou,梧桐沟",40.7189,98.6114,"P","PPL"
1529135,"Tianshuijing","Tianshuijing","",42.43333,97.56667,"P","PPL"
1529198,"Shiban Jing","Shiban Jing","Shiban Jing,Shih-pan Ching",41.76667,98.4,"H","WLL"
1529255,"Qinghekou","Qinghekou","",42.4,98.23333,"H","WLL"
1529296,"Nanquan","Nanquan","Lan'chyuan',Lan-ch'uan,Lan-ch’üan,Lan’chyuan’,Nan-ch'uan,Nan-ch’üan,Nanquan",40.91667,98.35,"P","PPL"
1529335,"Lu Jing","Lu Jing","Lu Ching,Lu Jing",41.86667,99.46667,"H","WLL"
1529468,"Hongliugou","Hongliugou","",41.46667,97.96667,"P","PPL"
1529469,"Hongliu Daquan","Hongliu Daquan","Hongliu Daquan,Hung-liu-ta Ch'uan,Hung-liu-ta Ch’üan,Khunlyudatsyuan Spring",40.98333,98.53333,"H","SPNG"
1529486,"Haju","Haju","Ha-chu,Haju",42.16667,98.61667,"P","PPL"
1529579,"Bor Ul Shan","Bor Ul Shan","Bor Ul Shan,Pao-erh-wu-la Shan",41.5,98.6,"T","MTS"
1529596,"Beishan","Beishan","Beishan,Pei-shan",40.75,98.63333,"P","PPL"
1783624,"Zuitou Hu","Zuitou Hu","",38.23333,103.95,"H","LK"
1783712,"Zinihu","Zinihu","Tzu-ni-hu,Zinihu",39.06667,105.4,"P","PPL"
1783713,"Zini Hu","Zini Hu","",39.1,105.45,"H","LK"
1783848,"Zhuozi Shan","Zhuozi Shan","Cho-tzu Shan,Chu-tzu-shan,Zhuozi Shan,zhuo zi shan,桌子山",39.64639,107.00833,"T","MTS"
1783849,"Zhuozi Shan","Zhuozi Shan","A-la-pu-so Shan,Alapusushan,Cho-tzu Shan,Zhuozi Shan,zhuo zi shan,桌子山",39.56797,107.03559,"T","MT"
1784142,"Zhoujiatian","Zhoujiatian","",38.75,105.68333,"P","PPL"
1784997,"Zhangzihu","Zhangzihu","",37.88333,104.76667,"P","PPL"
1785200,"Zhangjiagetai","Zhangjiagetai","",39.63333,110.36667,"P","PPL"
1785392,"Zhaijia","Zhaijia","Chai-chia,Zhaijia",37.73333,103.93333,"P","PPL"
1785608,"Yushuwan","Yushuwan","",39.4275,111.24722,"P","PPL"
1785936,"Yuejiajing","Yuejiajing","Yueh-chia-ching,Yuejiajing,Yüeh-chia-ching",37.58333,104.31667,"P","PPL"
1786691,"Yiketian","Yiketian","",39.13333,105.96667,"P","PPL"
1786807,"Yemajing","Yemajing","Yeh-ma-ching,Yemajing",39.55,102.95,"P","PPL"
1786980,"Yaogou","Yaogou","",39.82667,111.40333,"P","PPL"
1787008,"Yaoba","Yaoba","Yao-pa,Yaoba",38.53333,105.7,"P","PPL"
1787327,"Yangshita","Yangshita","",39.34528,110.60861,"P","PPL"
1787809,"Yabrai","Yabrai","Ya-pu-lai-yen-ch'ang,Ya-pu-lai-yen-ch’ang,Yabrai,Yabrai Yanchang",39.37778,102.85917,"P","PPL"
1787810,"Yabrai Shan","Yabrai Shan","Ya-pu-lai Shan,Ya-pu-lai-pa-ko,Yabaray Mountains,Yabrai Shan,Yabulai Shan,ya bu lai shan,雅布赖山",39.80472,103.11417,"T","MTS"
1787811,"Yabrai","Yabrai","Ya-pu-lai,Yabrai",39.61667,103.06667,"P","PPL"
1788339,"Xishantou","Xishantou","Hsi-shan-t'ou,Hsi-shan-t’ou,Xishantou",37.68333,104.1,"P","PPL"
1788475,"Xin Jo Sum","Xin Jo Sum","Hsin-chao-miao,Sin'chzhao,Sin’chzhao,Xin Jo Sum,Xinzhao,Xinzhaomiao",39.46222,107.815,"P","PPL"
1788569,"Xinxijing","Xinxijing","",37.50611,104.08778,"P","PPL"
1788584,"Xin Us","Xin Us","Hsi-ni-wu-su,Xin Us",38.98333,105.35,"P","PPL"
1788726,"Xinmiao","Xinmiao","",39.36667,110.36667,"P","PPL"
1788769,"Xinjingcun","Xinjingcun","",37.95,105.65,"P","PPL"
1788775,"Xinjie","Xinjie","Cha-sa-k'o-ch'i,Cha-sa-k’o-ch’i,Hsin-chieh,I-chin-ho-lo-ch'i,I-chin-ho-lo-ch’i,O-erh-to-ssu-yu-i-ch'ien-mo-ch'i-pei-tzu-fu,O-erh-to-ssu-yu-i-ch’ien-mo-ch’i-pei-tzu-fu,Xinjie",39.24583,109.75944,"P","PPL"
1789136,"Xindi","Xindi","",39.76667,106.78333,"P","PPL"
1789278,"Xinli","Xinli","Hang-chin-ch'i,Hang-chin-ch’i,Hanggin Qi,Hsi-ni-chen,O-erh-to-ssu-yu-i-hou-ch'i,O-erh-to-ssu-yu-i-hou-ch'i-pei-lo-miao,O-erh-to-ssu-yu-i-hou-ch’i,O-erh-to-ssu-yu-i-hou-ch’i-pei-lo-miao,Xini Zhen,Xinli,hang jin qi,xi ni,xi ni zhen,杭锦旗,锡尼,锡尼镇",39.84417,108.73472,"P","PPLA3"
1790823,"Xarlag","Xarlag","",38.03333,108.66667,"P","PPL"
1790824,"Xar Bulag","Xar Bulag","",39.38333,104.78333,"P","PPL"
1790826,"Xarag Mori","Xarag Mori","",38.82987,109.56255,"P","PPL"
1790828,"Xajing","Xajing","",39.4,108.4,"P","PPL"
1790832,"Wuziwan","Wuziwan","",39.46667,110.76667,"P","PPL"
1791230,"Wuhudong","Wuhudong","Wu-hu-tung,Wu-hu-tung-miao,Wuhudong",38.26667,107.26667,"P","PPL"
1791248,"Wuhai Shi","Wuhai Shi","Wu-hai Shih,Wuhai,Wuhai Shi,wu hai,wu hai shi,wuhai shi,乌海,乌海市",39.53827,106.90579,"A","ADM2"
1791249,"Wuhai","Wuhai","Hai-p'o-wan-shih,Hai-po-wan,Hai-p’o-wan-shih,Haibowan,O Hai,O-hai-chhi,O͘-hái-chhī,U-hai,Uhajus,Ukhaj,Vu-hoi-su,Vuhajo,Vû-hói-sṳ,WUA,Wu-chaj,Wu-hai-shih,Wuhai,hai bo wan,uhai si,wu hai,wu hai shi,wwhay,Ô Hải,Ŭ-hāi,Ухай,Үхай хот,ووهای,ووہائی,乌海,乌海市,海勃湾,烏海,烏海市,우하이 시",39.68442,106.81583,"P","PPLA2"
1791316,"Wudazhan","Wudazhan","Wu-ta-chan,Wudazhan",39.41667,106.68333,"P","PPL"
1791325,"Wuda","Wuda","Bayinsai,Ud,Wu-ta,Wu-ta-shih,Wuda,Wuda Qu,ba yin sai,wu da,wu da qu,乌达,乌达区,巴音赛",39.49944,106.71167,"P","PPL"
1792275,"Uxin Qi","Uxin Qi","Uxin,Uxin Qi,Wu-shen Ch'i,Wu-shen Ch’i,Wushen,Wushen Qi,wu shen,wu shen qi,乌审,乌审旗",38.59657,108.82552,"A","ADM3"
1792276,"Uxin Jo Sum","Uxin Jo Sum","Uxin Jo Sum,Uxin Ju,Wu-shen-chao",39.08667,109.02222,"P","PPL"
1792277,"Undralt","Undralt","",37.45,104.3,"P","PPL"
1792278,"Ulan Xabartai","Ulan Xabartai","Shih-pa-t'ai,Shih-pa-t’ai,Ulan Xabartai",39.17194,109.40222,"P","PPL"
1792279,"Ulan Obo","Ulan Obo","",37.5,104.4,"P","PPL"
1792281,"Ulan Mod","Ulan Mod","Ulan Mod,Wu-lan-mao-tao",39.8,104.83333,"P","PPL"
1792282,"Ulan Had","Ulan Had","",37.7,104.7,"P","PPL"
1792283,"Ulan","Ulan","Etuoke Qi,Khotok,O-cha-k'o-ch'i,O-cha-k’o-ch’i,O-erh-to-ssu-yu-i-chung-ch'i,O-erh-to-ssu-yu-i-chung-ch'i-wang-fu,O-erh-to-ssu-yu-i-chung-ch’i,O-erh-to-ssu-yu-i-chung-ch’i-wang-fu,O-t'o-k'o-ch'i,O-t'o-k'o-miao,O-t’o-k’o-ch’i,O-t’o-k’o-miao,Ordos Barun Gar Domda,Otog,Otog Qi,Residency Knyaz' Otok,Residency Knyaz’ Otok,Ulan,Ulan Balgas,Wu-lan-chen,Wu-lan-ha-la-ka-su,Wu-lan-ha-la-ka-su-chen,Wulan,Wulan Zhen,Wulanhalagasu,e tuo ke qi,wu lan,wu lan zhen,乌兰,乌兰镇,鄂托克旗",39.09374,107.98022,"P","PPLA3"
1792284,"U Hudagin Nur","U Hudagin Nur","",38.35,107.45,"H","LK"
1792372,"Tunggalag Nur","Tunggalag Nur","T'ung-ku-le-nao-erh,Tunggalag Nur,T’ung-ku-le-nao-erh",38.71667,105.15,"P","PPL"
1792397,"Tulantai","Tulantai","",38.6,104.3,"P","PPL"
1792399,"Tujingzi","Tujingzi","",38.26667,105.63333,"P","PPL"
1792412,"Tugetamiao","Tugetamiao","T'u-ko-t'a-miao,Tugetamiao,T’u-ko-t’a-miao",38.23333,106.95,"P","PPL"
1792415,"Tugaldai Sum","Tugaldai Sum","",39.05,109.26667,"P","PPL"
1792501,"Tou Guan","Tou Guan","",38.26667,105.81667,"T","PASS"
1792505,"Toudaohu","Toudaohu","T'ou-tao-hu,Toudaohu,T’ou-tao-hu",38.05,105.13333,"P","PPL"
1793045,"Tengger Shamo","Tengger Shamo","Peski Tenteri,T'eng-ko-li Sha-mo,T'eng-ko-li Sha-ti,Tenggeli Shamo,Tengger Shamo,Tengri Desert,Tenteri Sands,T’eng-ko-li Sha-mo,T’eng-ko-li Sha-ti,teng ge li sha mo,腾格里沙漠",37.95557,103.42822,"T","DSRT"
1793046,"Tengger Els","Tengger Els","T'eng-ko-li-o-li-ssu,Tengger Els,Tonghu,T’eng-ko-li-o-li-ssu",37.68333,104.8,"P","PPL"
1793050,"Temet","Temet","",38.56667,105.18333,"P","PPL"
1793079,"Tariat","Tariat","T'a-la-t'u,Tariat,T’a-la-t’u",39.23333,104.6,"P","PPL"
1793733,"Ta’erling","Ta'erling","",39.05,105.9,"P","PPL"
1793856,"Sumt","Sumt","",38.95,108.3,"P","PPL"
1793912,"Suhait","Suhait","Su-hai-t'u,Su-hai-t’u,Suhait",39.62556,105.08556,"P","PPL"
1793913,"Suhait","Suhait","",39.54083,106.65806,"P","PPL"
1793932,"Subrag","Subrag","",38.21667,108.8,"P","PPL"
1794121,"Situojing","Situojing","Situojing,Ssu-t'o-ching,Ssu-t’o-ching",39.6,104.45,"P","PPL"
1794436,"Shuimogou","Shuimogou","Shui-mo-kou,Shuimogou",38.95,105.85,"P","PPL"
1795947,"Shantaizi","Shantaizi","Shan-t'ai-tzu,Shan-t’ai-tzu,Shantaizi,dan tai zi,单台子",39.68611,111.45972,"P","PPLA4"
1796235,"Shanghaimiao Muchang","Shanghaimiao Muchang","Shanghaimiao Muchang",38.21667,106.81667,"P","PPLF"
1796444,"Shagedu","Shagedu","Chun-ko-erh-ch'i,Chun-ko-erh-ch’i,Dzhungar-Ci,Jungar Qi,O-erh-to-ssu-tso-i-ch'ien-ch'i,O-erh-to-ssu-tso-i-ch’ien-ch’i,Sha-ch'i-tu,Sha-ch’i-tu,Sha-ko-tu,Shagedu,Shagedu Zhen,Zhunge'er Qi,Zhunge’er Qi,sha ge du,sha ge du zhen,zhun ge er qi,Джунгар-Ци,准格尔旗,沙圪堵,沙圪堵镇",39.6475,110.85944,"P","PPLA4"
1796503,"Sartai","Sartai","",39.3,102.7,"P","PPL"
1796546,"Sanyanjing","Sanyanjing","",39.5,107.31667,"P","PPL"
1796870,"Sanguan","Sanguan","",38.36667,105.8,"P","PPL"
1796887,"Sanggin Dalai","Sanggin Dalai","Sanggin Dalai,Shan-ken-ta-lai",38.23333,105.4,"P","PPL"
1796894,"Sangejing","Sangejing","Gurban Hudag,San-ko-chin,Sangejing",39.63333,100.75,"P","PPL"
1796916,"Sanduandi","Sanduandi","",38.11667,107.4,"P","PPL"
1796917,"Sanduandi","Sanduandi","San-tuan-ti,Sanduandi",38.1,107.8,"P","PPL"
1796938,"Sandaokan","Sandaokan","San-tao-k'an,San-tao-k’an,Sandaokan,Shan-tao-kan",39.5,106.7,"P","PPL"
1796939,"Sandaohumiao","Sandaohumiao","San-tao-hu-miao,Sandaohumiao",38.28333,104.36667,"P","PPL"
1796940,"Sandaohu","Sandaohu","",38.1,104.83333,"P","PPL"
1796992,"Sanbei Yangchang","Sanbei Yangchang","",39.2,107.26667,"P","PPL"
1797002,"Sairgaltin Hudag","Sairgaltin Hudag","",38.15,105.15,"P","PPL"
1797004,"Sain Us","Sain Us","",39.16667,107.3,"P","PPL"
1797650,"Qingyangshan","Qingyangshan","Ch'ing-yang-shan,Ch’ing-yang-shan,Qingyangshan",37.61667,104.03333,"P","PPL"
1797730,"Qingshuihe Xian","Qingshuihe Xian","Ch'ing-shui-ho Hsien,Ch’ing-shui-ho Hsien,Qingshuihe,Qingshuihe Xian,qing shui he,qing shui he xian,清水河,清水河县",39.91779,111.68687,"A","ADM3"
1797735,"Chengguan","Chengguan","Ch'ing-shui-ho,Ch'ing-shui-ho-hsien,Ch'ung-shui-ho,Chengguan,Chengguan Zhen,Ch’ing-shui-ho,Ch’ing-shui-ho-hsien,Ch’ung-shui-ho,Qingshuihe,Tsingshuiho,cheng guan,cheng guan zhen,qing shui he,城关,城关镇,清水河",39.90722,111.67333,"P","PPLA3"
1798172,"Qiaojiawopu","Qiaojiawopu","Ch'iao-chia-wo-p'u,Ch’iao-chia-wo-p’u,Qiaojiawopu",38.31667,103.7,"P","PPL"
1798388,"Qarag","Qarag","",39.36667,106.11667,"P","PPL"
1798390,"Qalgar Nur","Qalgar Nur","",38.01667,104.36667,"H","LK"
1798391,"Qalgarin Sum","Qalgarin Sum","Ch'a-la-hu-miao,Ch’a-la-hu-miao,Qalgarin Sum",38.06667,104.41667,"P","PPL"
1798392,"Qalgar","Qalgar","",37.96667,104.43333,"P","PPL"
1798393,"Qalgar","Qalgar","Ch'a-la-ko-erh,Ch’a-la-ko-erh,Qalgar",37.93333,104.51667,"P","PPL"
1798395,"Qaidam","Qaidam","",39.85361,109.58306,"P","PPL"
1798396,"Qagan Tolgoi","Qagan Tolgoi","",38.2,108.03333,"P","PPL"
1798397,"Qagan Tal","Qagan Tal","",38.76861,109.09389,"P","PPL"
1798398,"Qagan Obo","Qagan Obo","Ch'a-han-ao-pao,Ch’a-han-ao-pao,Qagan Obo",39.95,104.58333,"P","PPL"
1798399,"Qagan Nur","Qagan Nur","Ch'a-kan-no-erh,Ch’a-kan-no-erh,Qagan Nur",39.24583,108.06333,"P","PPL"
1798400,"Qagan Bulag","Qagan Bulag","Ch'a-han-eh'ih,Ch’a-han-eh’ih,Qagan Bulag",38.36667,104.66667,"P","PPL"
1798401,"Qagan Bulag","Qagan Bulag","Ch'a-han Ch'ih,Ch’a-han Ch’ih,Qagan Bulag",38.4,104.66667,"H","LK"
1798402,"Qabqir","Qabqir","Qabqir,Qabqir Jiedao,Qiabuqi,ka bu qi,ka bu qi jie dao,卡布其,卡布其街道",39.61611,106.87361,"P","PPLA4"
1798404,"Qab","Qab","Bulanggin Sum,Pu-lung-miao,Qab",38.93333,107.38333,"P","PPL"
1798575,"Burjang Haizi","Burjang Haizi","Burjang Haizi,Pojianghaizi",39.84889,109.34083,"P","PPL"
1798949,"Pendiqing","Pendiqing","Pendiqing,Pendiqing Xiang,pen de qing,pen de qing xiang,盆地青,盆地青乡",39.94191,112.00383,"P","PPLA4"
1799151,"Otog Qianqi","Otog Qianqi","Etuoke,Etuoke Qianqi,O-t'o-k'o Ch'ien-ch'i,O-t’o-k’o Ch’ien-ch’i,Otog,Otog Qianqi,e tuo ke,e tuo ke qian qi,鄂托克,鄂托克前旗",38.25408,107.67924,"A","ADM3"
1799152,"Otog Qi","Otog Qi","Etuoke,Etuoke Qi,Khotok Banner,O-t'o-k'o Ch'i,O-t’o-k’o Ch’i,Ot'ok'e Banner,Otog,Otog Qi,Ot’ok’e Banner,e tuo ke,e tuo ke qi,鄂托克,鄂托克旗",39.27207,107.75553,"A","ADM3"
1799153,"Ordos Gaoyuan","Ordos Gaoyuan","",39,109,"T","PLAT"
1799154,"Ordon Nur","Ordon Nur","Ordon Nur,Wu-jih-te-no-erh",38.86667,108.36667,"P","PPL"
1799155,"Oljoq","Oljoq","Ao-le-chao-ch'i,Ao-le-chao-ch’i,Aolezhaoqi Zhen,Etuokeqian Qi,Oljoq,Otog Qianqi,ao lei zhao qi,ao lei zhao qi zhen,e tuo ke qian qi,敖勒召其,敖勒召其镇,鄂托克前旗",38.17979,107.47506,"P","PPLA3"
1799157,"Obon Xil","Obon Xil","",39.9,110.3,"P","PPL"
1799170,"Nurigai","Nurigai","Nurigai,Nurigai Sumu,nu ri gai,nu ri gai su mu,努日盖,努日盖苏木",39.49432,101.0804,"P","PPLA4"
1799185,"Nuanquanshang","Nuanquanshang","Nuan-ch'uan-shang,Nuan-ch’üan-shang,Nuanquanshang",39.71667,111.71667,"P","PPL"
1799187,"Nuanquan","Nuanquan","",39.66667,111.8,"P","PPL"
1799198,"Nogon Toli","Nogon Toli","Nao-kan-t'ao-le,Nao-kan-t’ao-le,Nogon Toli",39.31667,105.55,"P","PPL"
1799320,"Niuchangwan","Niuchangwan","",39.3,108.95,"P","PPL"
1799520,"Narin Xil","Narin Xil","",39.4,109.28333,"P","PPL"
1799521,"Narin Tal","Narin Tal","Na-lin-t'a,Na-lin-t’a,Narin Tal",39.56806,110.23806,"P","PPL"
1799522,"Narin Nur","Narin Nur","Na-lin-nao,Narin Nur",39.39556,108.26472,"P","PPL"
1799523,"Narin","Narin","Na-lin,Narin",39.80056,110.74111,"P","PPL"
1800056,"Nangsin Sum","Nangsin Sum","Ang-su-miao,Nangsin Sum",38.25,108.08333,"P","PPL"
1800271,"Ordos Desert","Ordos Desert","Khetao,Mao-wu-su Sha-mo,Maowusu Desert,Mu Us Shamo,O-erh-to-ssu,Ordos,Ordos Desert",38.75,109.16639,"T","DSRT"
1800299,"Mujingzi","Mujingzi","Mu-ching-tzu,Mujingzi",38.37,105.7025,"P","PPL"
1800406,"Mogoit","Mogoit","",38.4,107.61667,"P","PPL"
1800705,"Mengong","Mengong","Men-kung,Mengong",39.28333,109.53333,"P","PPL"
1801107,"Mashan","Mashan","Ma-p'eng-ts'un,Ma-p’eng-ts’un,Mapeng,Mashan",39.43056,111.19806,"P","PPL"
1801283,"Manlai","Manlai","",39.78333,109.5,"P","PPL"
1801304,"Manght Sum","Manght Sum","Ma-ha-t'u-miao,Ma-ha-t’u-miao,Manght Sum",38.61667,108.71667,"P","PPL"
1801380,"Malad","Malad","",38.35306,108.02583,"P","PPL"
1802195,"Luanjing","Luanjing","Luan-ching,Luanjing",37.96556,105.36417,"P","PPL"
1802422,"Longshou Shan","Longshou Shan","Khrebet Lunshoushan',Khrebet Lunshoushan’,Longshou Shan,Lun Shan Range,Lung-shou Shan,Lung-t'ou Shan-mo,Lung-t’ou Shan-mo,long shou shan,龙首山",39.04847,101.13906,"T","MTS"
1803043,"Liujiata","Liujiata","",39.925,111.09472,"P","PPL"
1803163,"Liudu Jing","Liudu Jing","",39.06667,104.45,"H","WLL"
1804271,"Lasengmiao","Lasengmiao","Lasengmiao,Lasengmiao Zhen,la seng miao,la seng miao zhen,拉僧庙,拉僧庙镇",39.32306,106.83556,"P","PPLA4"
1804330,"Laoshidan","Laoshidan","Laoshidan,Laoshidanzhen,lao shi dan,lao shi dan zhen,老石担,老石担镇",39.36667,106.83333,"P","PPL"
1804633,"Kushuigoumen","Kushuigoumen","",39.1,106.88333,"P","PPL"
1804918,"Juntuliang","Juntuliang","Chun-t'u-liang,Chün-t’u-liang,Juntuliang",39.705,109.06917,"P","PPL"
1804940,"Jungar Qi","Jungar Qi","Chun-ko-erh Ch'i,Chun-ko-erh Ch’i,Dzungar Banner,Jiage'er Qi,Jiage’er Qi,Jungar,Jungar Qi,Zhunge'er,Zhunge'er Qi,Zhunge’er,Zhunge’er Qi,zhun ge er,zhun ge er qi,准格尔,准格尔旗",39.86678,111.23282,"A","ADM3"
1804952,"Jun Bel","Jun Bel","Jun Bel,Tsung-pieh-li",39.26667,106.16667,"P","PPL"
1804970,"Juh","Juh","Chu-ho,Juh",37.88333,108.01667,"P","PPL"
1805225,"Jiudengkou","Jiudengkou","Chiu-teng-k'ou,Chiu-teng-k’ou,Denkou,Jiudengkou,Teng-k'ou,Teng-k'ou-chen,Teng-k'ou-hsien,Teng-k'ou-ku-chih,Teng-k’ou,Teng-k’ou-chen,Teng-k’ou-hsien,Teng-k’ou-ku-chih,Tengkow,Ting-k'ou-chen,Ting-k’ou-chen",39.93111,106.71833,"P","PPL"
1805244,"Jiucaizhuang","Jiucaizhuang","Chiu-ts'ai-chuang,Chiu-ts’ai-chuang,Jiucaizhuang,jiu cai zhuang,韭菜庄",39.84194,111.90222,"P","PPLA4"
1805283,"Jira","Jira","",38.06667,107.66667,"P","PPL"
1805587,"Jingshuizi","Jingshuizi","",37.78333,105.4,"P","PPL"
1805786,"Jijihu","Jijihu","Chi-chi-hu,Jijihu",37.7,104.7,"P","PPL"
1806247,"Jiangui","Jiangui","Chien-kuei,Jiangui",39.95,106.75,"P","PPL"
1806522,"Jartai Yanhu","Jartai Yanhu","Cha-la-t'ai-ta-pa-su Hu,Cha-la-t’ai-ta-pa-su Hu,Charatay Dabasan Nuur,Charstai Dabasu,Chi-lan-t'ai Yen-ch'ih,Chi-lan-t’ai Yen-ch’ih,Dzhalatay-Dabs,Jartai Yanchi,Jartai Yanhu,Lake Chzhalatany Dabasukha,Ozero Chzhalatay dabasukhu",39.69528,105.64528,"H","LK"
1806523,"Jartai","Jartai","Chi-lan-t'ai,Chi-lan-t’ai,Jartai,Tszilan'tay,Tszilan’tay",39.75,105.75,"P","PPL"
1806526,"Jagt","Jagt","",38.38333,104.9,"P","PPL"
1806528,"Ingget","Ingget","",38.73333,104.85,"P","PPL"
1806529,"Ordos Shi","Ordos Shi","E'erduosi,E'erduosi Shi,E’erduosi,E’erduosi Shi,I-k'o-chao Meng,I-k’o-chao Meng,Ih Ju Meng,Ikechao League,Ikechou League,Ikhchao League,Ordos,Ordos Shi,Yeghe Jo League,Yik'echao League,Yik’echao League,e er duo si,e er duo si shi,鄂尔多斯,鄂尔多斯市",39.46142,108.80946,"A","ADM2"
1806569,"Hut Yanchi","Hut Yanchi","Hu-t'un-nao-erh,Hu-t’un-nao-erh,Hut Yanchi,Hutin Nur",39.35194,105.01639,"P","PPL"
1806570,"Hut Yanchi","Hut Yanchi","Hu-t'un Yen-ch'ih,Hu-t’un Yen-ch’ih,Hut Yanchi",39.36611,105.01583,"H","LKN"
1806584,"Hutin Gol","Hutin Gol","Hotin Gol,Hutin Gol,K'uo-t'u-hu,K’uo-t’u-hu",38.96667,104.23333,"P","PPL"
1806688,"Hun He","Hun He","Hun He,Hun Ho",39.93667,111.46833,"H","STM"
1806709,"Hulstai","Hulstai","Hu-lu-ssu-t'ai,Hu-lu-ssu-t’ai,Hulstai",39.25,106.2,"P","PPL"
1807016,"Hua Tolgoi","Hua Tolgoi","Hua Tolgoi,Huang-t'ao'lao'kai,Huang-t’ao’lao’kai",38.68009,109.3147,"P","PPL"
1807906,"Hotong Qagan Nur","Hotong Qagan Nur","Hotong Qagan Nur,Hu-tung-ch'a-han-nao,Hu-tung-ch’a-han-nao",39.18333,109,"H","LK"
1807907,"Hos Burd","Hos Burd","Hao-ssu-pu-erh-tu,Hos Burd",39.6,104.76667,"P","PPL"
1807909,"Horo","Horo","Horo,Horo Sum,Huo-lo-su-mu",39.35,109.81667,"P","PPL"
1808018,"Hongshansi","Hongshansi","Hongshansi,Hung-shan-ssu",38.7,104.28333,"P","PPL"
1808095,"Hong Jing","Hong Jing","",37.8,105.23333,"H","WLL"
1808096,"Hongjing","Hongjing","",39.45,107.96667,"P","PPL"
1808177,"Hogjilt","Hogjilt","",39.71667,107.33333,"P","PPL"
1808178,"Hobon Namag","Hobon Namag","Hobon Namag,K'o-pai-la-mu-ka,K’o-pai-la-mu-ka",38.66667,105.46667,"P","PPL"
1808179,"Hobo Hudag","Hobo Hudag","",38.98333,105.35,"P","PPL"
1808787,"Haxat","Haxat","Haxat,Hei-sha-t'u,Hei-sha-t’u",39.48333,106.35,"P","PPL"
1808790,"Hatu Hudag","Hatu Hudag","Ha-t'u-hu-tu-ko,Ha-t’u-hu-tu-ko,Hatu Hudag",39.61667,105.68333,"P","PPL"
1808791,"Hatu","Hatu","",38.8,107.46667,"P","PPL"
1808792,"Hatan Us","Hatan Us","Ha-t'eng-wu-su,Ha-t’eng-wu-su,Hatan Us",39.91667,105.66667,"P","PPL"
1808938,"Hanggin Qi","Hanggin Qi","Hang-chin Ch'i,Hang-chin Ch’i,Hanggin,Hanggin Banner,Hanggin Qi,Hangjin,Hangjin Qi,hang jin,hang jin qi,杭锦,杭锦旗",40.04628,108.55413,"A","ADM3"
1808990,"Halawu","Halawu","",38.83333,105.86667,"P","PPL"
1808994,"Haizita","Haizita","",39.96667,111.16667,"P","PPL"
1809106,"Haidai","Haidai","",38.73333,107.88333,"P","PPL"
1809372,"Gun Qarag","Gun Qarag","Gun Qarag,Gun Qirag,Kung-ch'ia-han,Kung-ch’ia-han",39.84306,107.65528,"P","PPL"
1809374,"Gun Hudag","Gun Hudag","Gun Hudag,Kung-hu-tung",39.41694,102.77389,"P","PPL"
1809375,"Gun Hudag","Gun Hudag","",38.78333,105.38333,"P","PPL"
1809376,"Gun Hudag","Gun Hudag","",38.46667,105.61667,"P","PPL"
1811631,"Erzihao","Erzihao","",39.98333,110,"P","PPL"
1811707,"Erdaohu","Erdaohu","Erdaohu,Erh-tao-hu",38.06667,104.83333,"P","PPL"
1811712,"Erdaochuan","Erdaochuan","",37.93333,107.55,"P","PPL"
1811740,"Ejin Horo Qi","Ejin Horo Qi","Ejin Horo,Ejin Horo Qi,I-chin-huo-lo Ch'i,I-chin-huo-lo Ch’i,Yijinhuoluo,Yijinhuoluo Qi,yi jin huo luo,yi jin huo luo qi,伊金霍洛,伊金霍洛旗",39.55159,109.74919,"A","ADM3"
1811745,"Ehen Hudag","Ehen Hudag","Ehen Hudag,O-hen-hu-tu-ko",39.63333,104.06667,"P","PPL"
1811746,"Ehen Hudag","Ehen Hudag","A-la-shan-yu-ch'i,A-la-shan-yu-ch’i,Alashanyou Qi,Alxa Youqi,Ehen Hudag,Ekenhu Duge Zhen,O-k'en-hu-tu-ko,O-k’en-hu-tu-ko,a la shan you qi,e ken hu dou ge,e ken hu dou ge zhen,阿拉善右旗,额肯呼都格,额肯呼都格镇",39.21074,101.66898,"P","PPLA3"
1811778,"Dustin He","Dustin He","Dustin Gol,Dustin He,Tu-ssu-t'u Ho,Tu-ssu-t’u Ho",39.09278,106.87972,"H","STM"
1811799,"Du’erji","Du'erji","Du'erji,Durelj,Durelji,Du’erji,Tu-jih-le-chi",39.92028,104.98111,"P","PPL"
1811802,"Duqingshan","Duqingshan","Duqingshan,Tu-ch'ing-shan,Tu-ch’ing-shan",39.2,102.65,"P","PPL"
1811911,"Dugui Qirag","Dugui Qirag","Dugui Qarag,Dugui Qirag,Tu-kuei-chia-han",39.61167,108.81861,"P","PPL"
1811914,"Dugarin Tohoi","Dugarin Tohoi","",38.16667,108.9,"P","PPL"
1812255,"Dongsheng Qu","Dongsheng Qu","Dongsheng,Dongsheng Qu,Dongsheng Shi,Dongsheng Xian,Tung-sheng Hsien,dong sheng,dong sheng qu,东胜,东胜区",39.82306,110.00538,"A","ADM3"
1812256,"Dongsheng","Dongsheng","DSN,Dongsheng,Dongsheng Qu,Dunshen,Tung-sheng,Tung-sheng-hsien,dong sheng,dong sheng qu,东胜,东胜区",39.81609,109.97763,"P","PPL"
1812301,"Dongqinghu","Dongqinghu","Dongqinghu,Tung-ch'ing-hu,Tung-ch’ing-hu",37.98333,104.13333,"P","PPL"
1813554,"Dashibian","Dashibian","",37.83333,108.76667,"P","PPL"
1813615,"Darihin Sum","Darihin Sum","Darihin Sum,Ta-li-k'o-miao,Ta-li-k’o-miao",39.8,104.43333,"P","PPL"
1813621,"Darbagai","Darbagai","",39.96667,108.05,"P","PPL"
1814148,"Dajing","Dajing","",37.73333,104.3,"P","PPL"
1814438,"Dafanpu","Dafanpu","",39.82417,111.16611,"P","PPL"
1814530,"Dachechang","Dachechang","Dachechang,Ta-ch'e-ch'ang,Ta-ch’e-ch’ang",39.41667,101.05,"P","PPL"
1814575,"Dabqig","Dabqig","Dabqig,Dabuchake Zhen,Ta-pu-ch'a-k'o,Ta-pu-ch'a-k'o-chen,Ta-pu-ch'an,Ta-pu-ch’a-k’o,Ta-pu-ch’a-k’o-chen,Ta-pu-ch’an,Uxin Qi,Wu-shen-ch'i,Wu-shen-ch’i,Wushen Qi,da bu cha ke,da bu cha ke zhen,wu shen qi,乌审旗,达布察克,达布察克镇",38.59278,108.84694,"P","PPL"
1815298,"Chengchuan","Chengchuan","Ch'eng-ch'uan-chiao-t'ang,Chengchuan,Ch’eng-ch’uan-chiao-t’ang",37.7,108.26667,"P","PPL"
1815523,"Changtan","Changtan","",39.60528,111.16,"P","PPL"
1815635,"Changliushui","Changliushui","",38.41667,105.7,"P","PPL"
1815713,"Changhu","Changhu","",38.31667,104.05,"P","PPL"
1816215,"Damiao","Damiao","Bulag,Damiao,Harbatan",38.49361,107.22417,"P","PPL"
1816270,"Bor Huxu","Bor Huxu","",38.88333,107.7,"P","PPL"
1816430,"Benjing","Benjing","Benjing,Pen-ching",39.38639,105.91556,"P","PPL"
1816748,"Beida Shan","Beida Shan","",39.56667,101.2,"T","MTS"
1816756,"Beidachi","Beidachi","Beidachi,Pei-ta-ch'ih,Pei-ta-ch’ih",37.97111,107.46639,"P","PPL"
1816757,"Beida Chi","Beida Chi","Beida Chi,bei da chi,北大池",37.95849,107.44185,"H","LK"
1816817,"Bayan Us","Bayan Us","",39.23333,107.76667,"P","PPL"
1816818,"Bayan Tolgoi","Bayan Tolgoi","Bayan Tolgoi,Tao-lao-a-kuei Miao",39.1075,107.53917,"P","PPL"
1816819,"Bayan Tohoi","Bayan Tohoi","Bayan Tohoi,Pa-yin-t'ao-hai,Pa-yin-t’ao-hai",39.18389,106.86611,"P","PPL"
1816820,"Bayan Nur","Bayan Nur","Bayan Nur,Pa-yen-nao-erh",38.23333,103.93333,"P","PPL"
1816821,"Bayan Hot","Bayan Hot","A-la-shan-ch'i,A-la-shan-ch’i,A-la-shan-tso-ch'i,A-la-shan-tso-ch’i,Alashanzuo Qi,Alxa Zuoqi,Bayan Hot,Bayanhaote Zhen,Bayenhot,Bayinhot,Pa-yen-hao-t'e,Pa-yen-hao-t'e-chen,Pa-yen-hao-t'e-shih,Pa-yen-hao-t’e,Pa-yen-hao-t’e-chen,Pa-yen-hao-t’e-shih,Pa-yin-hao-t'e,Pa-yin-hao-t’e,Ting-yuan-ying,Ting-yüan-ying,Tszokhushechzhitszyuy,Tszökhushechzhitszyuy,Tzu-hu,Tzu-hu-she-chih-chu,Tzu-hu-she-chih-chü,a la shan zuo qi,ba yan hao te,ba yan hao te zhen,巴彦浩特,巴彦浩特镇,阿拉善左旗",38.83861,105.66861,"P","PPLA3"
1816826,"Bayan Borog","Bayan Borog","",39.36667,101.93333,"P","PPL"
1817158,"Baldai","Baldai","",39.36667,106.25,"P","PPL"
1817250,"Baiyanjing","Baiyanjing","Baiyanjing,Pai-yen-ching",39.68861,107.57556,"P","PPL"
1817624,"Baijiji","Baijiji","",39.25,101.41667,"P","PPL"
1817818,"Bag Nur","Bag Nur","Bag Nur,Pa-han-nao",39.31,109.25778,"H","LK"
1817819,"Bag Gaxun","Bag Gaxun","",39.46667,105.3,"P","PPL"
1817844,"Badain Jaran","Badain Jaran","Badain Jaran,Pa-tan-chi-lin",39.8,102.4,"P","PPL"
1817872,"Atgain Sum","Atgain Sum","Atgain Sum,T'ao-li,T’ao-li",38.64111,107.01028,"P","PPL"
1817873,"Arslan","Arslan","A-se-lang,Arslan",39.5,107.15,"P","PPL"
1817875,"Arbas","Arbas","",39.5,107.1,"P","PPL"
1818126,"Alxa Zuoqi","Alxa Zuoqi","A-la-shan-tso Ch'i,A-la-shan-tso Ch’i,Alashan,Alashan Zuo Qi,Alashan Zuoqi,Alxa,Alxa Zuoqi,a la shan,a la shan zuo qi,Ālāshàn Zuǒ Qí,阿拉善,阿拉善左旗",39.42846,105.3952,"A","ADM3"
1818127,"Alxa Youqi","Alxa Youqi","A-la-shan-yu Ch'i,A-la-shan-yu Ch’i,Alashan,Alashan Youqi,Alxa,Alxa Youqi,a la shan,a la shan you qi,阿拉善,阿拉善右旗",40.13182,102.74118,"A","ADM3"
1818128,"Alxa Meng","Alxa Meng","Alashan Meng,Alxa,Alxa Meng,a la shan,a la shan meng,阿拉善,阿拉善盟",40.48087,102.84579,"A","ADM2"
1818130,"Altan Xiret","Altan Xiret","A-t'eng-hsi-lien,A-t’eng-hsi-lien,Altan Xiret,Atengxilian,Atengxilian Zhen,Ejin Horo Qi,I-chin-huo-lo-ch'i,I-chin-huo-lo-ch’i,Yijinhuoluo Qi,a teng xi lian,a teng xi lian zhen,yi jin huo luo qi,伊金霍洛旗,阿腾席连,阿腾席连镇",39.57722,109.75278,"P","PPLA4"
1818151,"Ailibugai","Ailibugai","Ailibugai,Eribugai,Eribugai Sumu,e ri bu gai,e ri bu gai su mu,额日布盖,额日布盖苏木",38.86667,101.56667,"P","PPLA4"
1818167,"Aguin Sum","Aguin Sum","A-kuei-miao,Aguin Sum",39.63333,103,"P","PPL"
1900506,"Zhaoyoufang","Zhaoyoufang","Chao-yu-fang,Zhaoyoufang",39.90833,109.94167,"P","PPL"
1900507,"Hantai","Hantai","",39.84083,109.80694,"P","PPL"
1900508,"Burd Liang","Burd Liang","Bu'erduliang,Burd Liang,Bu’erduliang",39.73611,109.93361,"P","PPL"
1900509,"Hutung Miao","Hutung Miao","Ho-t'ung-miao,Ho-t’ung-miao,Hutung Miao",39.65944,109.49361,"P","PPL"
1900511,"Yuanjiahao","Yuanjiahao","Tal Hao,Yuanjiahao",39.78556,110.13556,"P","PPL"
1901178,"Bulen","Bulen","Bulen,Hou-pu-lien",39.34139,109.89778,"P","PPL"
1902403,"Wuyi Nongchang","Wuyi Nongchang","Wuyi Nongchang",39.79139,106.77083,"P","PPLF"
1902404,"Hoyor Qaidam Sum","Hoyor Qaidam Sum","Ha-pi-hai Miao,Hoyor Qaidam Sum",39.86361,108.51556,"P","PPL"
1902405,"Erdaokan","Erdaokan","Erdaokan,Erh-tao-k'an,Erh-tao-k’an",39.43444,106.82,"P","PPL"
1902407,"Taoli","Taoli","",38.64556,106.83222,"P","PPL"
1913267,"Weijiamao","Weijiamao","",39.57194,111.35,"P","PPL"
1913268,"Xiaomiaozi","Xiaomiaozi","Xiaomiaozi,xiao miao zi,小庙子",39.91778,111.65444,"P","PPLA4"
2028234,"Ku-erh-pan-hu-tu-ko-kao-le","Ku-erh-pan-hu-tu-ko-kao-le","Ku-erh-pan-hu-tu-ko-kao-le,Yamaan Usni Sayr,Yamaan Usnï Sayr",41.53333,103.83333,"H","WAD"
2028459,"Tun-ta-cha-ta-kai-kao-le","Tun-ta-cha-ta-kai-kao-le","Tun-ta-cha-ta-kai-kao-le,Ulaan Balgasni Sayr,Ulaan Balgasnï Sayr",41.56667,104,"H","WAD"
2028670,"A-ken-wu-su-kao-le","A-ken-wu-su-kao-le","A-ken-wu-su-kao-le,Tsagaan Uulin Sayr,Tsagaan Uulïn Sayr",41.75,103.21667,"H","WAD"
2028866,"Tooroyt Sayr","Tooroyt Sayr","T'ao-jui-t'u-kao-le,Tooroyt Sayr,T’ao-jui-t’u-kao-le",41.65,103.53333,"H","WAD"
2029294,"Sha-t’ing-kao-le","Sha-t'ing-kao-le","Sha-t'ing-kao-le,Sha-t’ing-kao-le,Shatin Sayr,Shatïn Sayr",41.56667,104,"H","WAD"
2029302,"Sha-erh-t’ao-le-kai-chun-kao-le","Sha-erh-t'ao-le-kai-chun-kao-le","Sha-erh-t'ao-le-kai-chun-kao-le,Sha-erh-t’ao-le-kai-chun-kao-le,Shar Tolgoyn Dzuun Sayr,Shar Tolgoyn Dzüün Sayr",41.45,103.65,"H","WAD"
2029319,"Sha-erh-hu-la-sen-kao-le","Sha-erh-hu-la-sen-kao-le","Sha-erh-hu-la-sen-kao-le,Shar Hulsin Sayr,Shar Hulsïn Sayr",41.76667,102.95,"H","WAD"
2029882,"Naran Bulagiyn Ovoo","Naran Bulagiyn Ovoo","Ch'a-kan-ao-pao,Ch’a-kan-ao-pao,Naran Bulagiyn Ovoo",40.05,106.06667,"T","HLL"
2031877,"Demchiyn Nuur","Demchiyn Nuur","Demchiyn Nuur,Te-mu-ch'in-no-erh,Te-mu-ch’in-no-erh",48.98333,118.51667,"H","LK"
2033051,"Horinger Xian","Horinger Xian","Helinge'er,Helinge'er Xian,Helinge’er,Helinge’er Xian,Ho-lin-ko-erh Hsien,Horinger,Horinger Xian,he lin ge er,he lin ge er xian,和林格尔,和林格尔县",40.38612,111.81886,"A","ADM3"
2033052,"Ershibaqingcun","Ershibaqingcun","Erh-shih-pa-ch'ing-ts'un,Erh-shih-pa-ch’ing-ts’un,Ershibaqingcun",41.55,113.86667,"P","PPL"
2033066,"Zhuozi Xian","Zhuozi Xian","Cho-tzu Hsien,Zhuozi,Zhuozi Xian,zhuo zi,zhuo zi xian,卓资,卓资县",40.92682,112.5479,"A","ADM3"
2033067,"Zhuozishan","Zhuozishan","Cho-tzu,Cho-tzu-shan,Chotzushanchen,Zhuozi,Zhuozi Xian,Zhuozishan,Zhuozishan Zhen,zhuo zi shan,zhuo zi shan zhen,zhuo zi xian,卓资县,卓资山,卓资山镇",40.89917,112.56028,"P","PPLA3"
2033114,"Zhirui","Zhirui","",42.83333,117.8,"P","PPL"
2033132,"Zhengxiangbai Qi","Zhengxiangbai Qi","All Bordered White Banner,Cheng-hsiang-pai Ch'i,Cheng-hsiang-pai Ch’i,Xulun Hobot Qagan,Xulun Hobot Qagan Qi,Zhengxiangbai,Zhengxiangbai Qi,zheng xiang bai,zheng xiang bai qi,正镶白,正镶白旗",42.53226,114.99251,"A","ADM3"
2033134,"Zhenglan Qi","Zhenglan Qi","All Blue Banner,Cheng-lan Ch'i,Cheng-lan Ch’i,Xulun Hoh Qi,Zhenglan,Zhenglan Qi,zheng lan,zheng lan qi,正蓝,正蓝旗",42.5419,115.96169,"A","ADM3"
2033154,"Zhaopo","Zhaopo","",40.31667,110.5,"P","PPL"
2033156,"Zhaojunmu","Zhaojunmu","",40.75,111.8,"S","HSTS"
2033191,"Zhangjiayao","Zhangjiayao","",43.96667,123.21667,"P","PPL"
2033206,"Zhanggao","Zhanggao","",40.72361,113.71722,"P","PPL"
2033214,"Qaidam","Qaidam","Qaidam,Zhandanzhao",40.35278,109.68639,"P","PPL"
2033219,"Zhaijiacun","Zhaijiacun","Chai-chia-ts'un,Chai-chia-ts’un,Zhaijiacun",41.73333,113.45,"P","PPL"
2033224,"Zalantun Shi","Zalantun Shi","Buteha Banner,Butha Qi,Pu-t'e-ha Ch'i,Pu-t’e-ha Ch’i,Put'eha Banner,Put’eha Banner,Zalantun,Zalantun Shi,Zhalantun,Zhalantun Shi,bu te ha qi,zha lan tun,zha lan tun shi,布特哈旗,扎兰屯,扎兰屯市",47.93908,122.54201,"A","ADM3"
2033225,"Zhalantun","Zhalantun","Butha Qi,Cha-lan-tun,Chzhalan'tun',Chzhalantun,Cjalanjtunj,NZL,Pu-t'e-ha-ch'i,Pu-t’e-ha-ch’i,Tsa-lan-t'un,Tsa-lan-t’un,Xinghua,Xinghua Jiedao,Ya-lu,Ya-lu-hsien,Zalantun,Zhalantun,Zhalantun Shi,bu te ha qi,xing hua,xing hua jie dao,zha lan tun,zha lan tun shi,Чжаланьтунь,兴华,兴华街道,布特哈旗,扎兰屯,扎兰屯市",48.00945,122.73651,"P","PPLA3"
2033228,"Yutiangao","Yutiangao","Yu-t'ien-kao,Yutiangao,Yü-t’ien-kao",42.84056,119.76889,"P","PPL"
2033262,"Yulin","Yulin","Yulin,yu lin,育林",49.8377,121.26675,"P","PPL"
2033265,"Yuliangpu","Yuliangpu","",43.41667,121.98333,"P","PPL"
2033268,"Yujuncun","Yujuncun","",46.03333,119.83333,"P","PPL"
2033290,"Yuanlin","Yuanlin","Juan'lin',Yuanlin,Yuanlin Zhen,yuan lin,yuan lin zhen,Юаньлинь,原林,原林镇",49.88546,121.38735,"P","PPLA4"
2033291,"Yuanbaoshan Zhan","Yuanbaoshan Zhan","Yuan-pao-shan,Yuanbaoshan Zhan,Yüan-pao-shan",42.23667,119.23389,"S","RSTN"
2033297,"Youyi Shuiku","Youyi Shuiku","Youyi Shuiku,you yi shui ku,友谊水库",40.8506,114.01192,"H","RSV"
2033303,"Yongxing","Yongxing","",40.445,112.26389,"P","PPL"
2033306,"Yongshunbu","Yongshunbu","Yongshunbu,Yung-shun-p'u-ts'un,Yung-shun-pao,Yung-shun-pao-ts'un,Yung-shun-pao-ts’un,Yung-shun-p’u-ts’un",41.62222,113.64167,"P","PPL"
2033310,"Yongsheng","Yongsheng","",41.08333,107.25,"P","PPL"
2033332,"Yong’an","Yong'an","Yong'an,Yong'an Zhen,Yong’an,Yong’an Zhen,yong an,yong an zhen,永安,永安镇",45.81318,121.64068,"P","PPLA4"
2033334,"Yolin Mod","Yolin Mod","Yao-li-mao-tu,Yolin Mod",44.11667,122.25,"P","PPL"
2033342,"Yitulihe","Yitulihe","I-t'u-li-ho,I-tuli,I-t’u-li-ho,Yitulihe,Yitulihe Zhen,yi tu hei he,yi tu hei he zhen,伊图黑河,伊图黑河镇",50.6351,121.56766,"P","PPLA4"
2033352,"Yin Shan","Yin Shan","Yin Shan,Yin-shan Shan-mo",41.28194,108.8025,"T","MTS"
2033360,"Yin He","Yin He","Yin He,Yin Ho",42.31667,118.61667,"H","STM"
2033361,"Yinhao","Yinhao","Yinhao,yin hao,银号",41.11959,110.30635,"P","PPLA4"
2033382,"Yingchen","Yingchen","",49.6,124.03333,"P","PPL"
2033386,"Yinbeiliang","Yinbeiliang","",40.95,113.31667,"P","PPL"
2033387,"Yimuhe","Yimuhe","I-mu,I-mu-ch'ia,I-mu-ch’ia,I-mu-ho,I-mu-k'a,I-mu-k’a,Imuya,Yimuhe",52.75,120.11667,"P","PPL"
2033388,"Yiminhe Muchang","Yiminhe Muchang","Yiminhe Muchang",48.66667,119.9,"P","PPLF"
2033389,"Yimin He","Yimin He","I-min Ho,I-min-kuo-lo Ho,Iminkhe,Min Ho,Yimin He,yi min he,伊敏河",49.26667,119.71667,"H","STM"
2033390,"Yimin Sumu","Yimin Sumu","I-min-ho,Yimin,Yimin Sumu,Yiminhe,yi min su mu,伊敏苏木",48.43083,119.75496,"P","PPL"
2033399,"Yiliekede","Yiliekede","I-lieh-K'o-te,I-lieh-K’o-te,Yiliekede,yi lie ke de,伊列克得",48.84452,121.58775,"P","PPL"
2033409,"Yihegong","Yihegong","",42.78333,118.31667,"P","PPL"
2033514,"Yangd Sum","Yangd Sum","Yang-lo-su-mu,Yang-tao-su-mu,Yangd Sum",43.32028,115.64389,"P","PPL"
2033517,"Yangchangzi He","Yangchangzi He","Yang-ch'ang-tzu Ho,Yang-ch’ang-tzu Ho,Yangchangzi He",42.51306,119.58722,"H","STM"
2033518,"Yangchang","Yangchang","",43.61667,119.16667,"P","PPL"
2033519,"Yangchang","Yangchang","",42.62389,119.99472,"P","PPL"
2033523,"Yandian","Yandian","Yandian,Yen-tien",40.0475,110.2525,"P","PPL"
2033528,"Yamenyingzi","Yamenyingzi","Ya-men-ying-tzu,Yamenyingzi",42.38333,121.05,"P","PPL"
2033529,"Yamenying","Yamenying","Ya-men,Yamenying",43.34861,122.23,"P","PPL"
2033530,"Yamenmiao","Yamenmiao","",43.91667,119.53333,"P","PPL"
2033532,"Yalu He","Yalu He","Ya-lu Ho,Yalu He,Yalukhe,ya lu he,雅鲁河",46.9533,123.51537,"H","STM"
2033533,"Yalu","Yalu","Jalu,Ya-erh,Yal,Yalu,ya lu,Ялу,雅鲁",48.54353,122.13719,"P","PPL"
2033535,"Yakeshi Shi","Yakeshi Shi","Hsi-kuei-t'u Ch'i,Hsi-kuei-t’u Ch’i,Hsikueit'u Banner,Hsikueit’u Banner,Xuguit Qi,Yakeshi,Yakeshi Shi,xi gui tu qi,ya ke shi,ya ke shi shi,喜桂图旗,牙克石,牙克石市",49.32123,121.27807,"A","ADM3"
2033536,"Yakeshi","Yakeshi","Hsi-kuei-t'u,Hsi-kuei-t’u,Jakehshi,Shih-k'o-ya,Shih-k’o-ya,Xingong Jiedao,Xuguit Qi,Ya-k'o-shih,Ya-k’o-shih,Yakeshi,Yakeshi Shi,xi gui tu qi,xin gong jie dao,ya ke shi,ya ke shi shi,Якэши,喜桂图旗,新工街道,牙克石,牙克石市",49.28333,120.73333,"P","PPLA3"
2033537,"Yake Shan","Yake Shan","",48,121.5,"T","MTS"
2033543,"Yagan","Yagan","Yagan,ya gan,雅干",42.01667,102.58333,"P","PPL"
2033544,"Yadong","Yadong","Ya-tung,Yadong,Yadong Zhen,ya dong,ya dong zhen,亚东,亚东镇",48.5031,123.78273,"P","PPLA4"
2033545,"Yabut","Yabut","",42.2,101.03333,"P","PPL"
2033562,"Suhai Shuwan","Suhai Shuwan","Suhai Shuwan,Xuhaishuwan",40.24639,110.8425,"P","PPL"
2033563,"Xugui Sum","Xugui Sum","Hsiu-kou,Xugui,Xugui Sum",40.29694,103.59806,"P","PPL"
2033564,"Xuguang","Xuguang","Xuguang,xu guang,旭光",51.50587,122.09126,"P","PPL"
2033567,"Xuetian","Xuetian","Xuetian,Xuetian Xiang,xue tian,xue tian xiang,学田,学田乡",45.66667,121.26667,"P","PPLA4"
2033575,"Xogin","Xogin","Shao-ken,Xogin",43.63333,120.85,"P","PPL"
2033576,"Xizi","Xizi","Han-tzu,Hsi-tzu,Xizi",41.78333,119.25,"P","PPL"
2033585,"Xixiaozhao","Xixiaozhao","Hsi-hsiao-chao,Xixiaozhao",40.87694,108.35806,"P","PPL"
2033589,"Xiwulanbulang","Xiwulanbulang","",41.1,110.96667,"P","PPL"
2033592,"Xiwopu","Xiwopu","Hsi-wo-p'u,Hsi-wo-p’u,Xiwopu",42.74444,119.01917,"P","PPL"
2033599,"Xiwagebo","Xiwagebo","Xiwagebo,Xiwagebu",40.98806,108.29194,"P","PPL"
2033607,"Xi Ujimqin Qi","Xi Ujimqin Qi","Hsi-wu-chu-mu-ch'in Ch'i,Hsi-wu-chu-mu-ch’in Ch’i,West Ujumuchin Banner,Wu-chu-mu-ch'in-yu-i Ch'i,Wu-chu-mu-ch’in-yu-i Ch’i,Xi Ujimqin,Xi Ujimqin Qi,Xiwuzhumuqin Qi,xi wu,xi wu zhu mu qin qi,西乌,西乌珠穆沁旗",44.70669,117.81078,"A","ADM3"
2033618,"Xishanzui","Xishanzui","Hsi-shan-tsui,Urad Qianqi,Wu-la-t'e-ch'ien-ch'i,Wu-la-t’e-ch’ien-ch’i,Wulateqian Qi.,Xishanzui,Xishanzui Zhen,wu la te qian qi,xi shan zui,xi shan zui zhen,乌拉特前旗,西山嘴,西山嘴镇",40.7075,108.64389,"P","PPLA4"
2033620,"Xishan","Xishan","Hsi-shan,Xishan",42.60472,119.05833,"P","PPL"
2033625,"Xiqiao","Xiqiao","Hsi-ch'iao,Hsi-ch’iao,Xiqiao",41.8,119,"P","PPL"
2033637,"Xinzhen","Xinzhen","",42.61528,121.03528,"P","PPL"
2033639,"Xinzhangfang","Xinzhangfang","Hsin-chang-fang,Xinzhangfang,xin zhang fang,新帐房",50.13703,121.81142,"P","PPL"
2033654,"Xin Us","Xin Us","Hsi-ni-wu-su,Xin Us",40.7525,105.35583,"P","PPL"
2033659,"Xintian","Xintian","Xintian,Xintian Zhen,xin tian,xin tian zhen,新天,新天镇",51.20354,124.20852,"P","PPLA4"
2033672,"Xinmincun","Xinmincun","Hsin-min-ts'un,Hsin-min-ts’un,Xinmincun",42.61667,120.21667,"P","PPL"
2033686,"Xinlin","Xinlin","Hsin-lin,Xinlin",43.96667,118.05,"P","PPL"
2033698,"Xinkai He","Xinkai He","Hsin-k'ai Ho,Hsin-k’ai Ho,Hsin-liao Ho,Uriji-muru,Xinkai He",43.59417,123.48861,"H","STM"
2033706,"Xiniqi","Xiniqi","Hsi-ni-ch'i,Hsi-ni-ch’i,Xiniqi,Xiniqi Zhen,xi ni qi,xi ni qi zhen,西尼气,西尼气镇",50.38508,121.69767,"P","PPLA4"
2033707,"Xinhui","Xinhui","Ao-han-ch'i,Ao-han-ch’i,Aohan Qi,Hsin-hui,Ts'ai-yuan-tzu,Ts’ai-yüan-tzu,Xinhui,Xinhui Zhen,ao han qi,xin hui,xin hui zhen,敖汉旗,新惠,新惠镇",42.28389,119.89833,"P","PPLA3"
2033711,"Xinhua","Xinhua","",41.05306,107.58972,"P","PPL"
2033712,"Xin Hot","Xin Hot","A-pa-ka-ch'i,A-pa-ka-ch’i,Abag Qi,Abaga Qi,Han-pu-miao,Hanbeimiao,Hsin-hao-t'e,Hsin-hao-t’e,Xin Hot,a ba ga qi,han bei miao,xin hao te,新浩特,汉贝庙,阿巴嘎旗",44.02005,114.96806,"P","PPL"
2033713,"Xinhen Barun","Xinhen Barun","",48.9,119.8,"P","PPL"
2033720,"Xingshunxi","Xingshunxi","Hsing-shun-hsi,Xingshunxi",41.26583,109.98389,"P","PPL"
2033758,"Xinghe Xian","Xinghe Xian","Hsing-ho Hsien,Xinghe,Xinghe Xian,xing he,xing he xian,兴和,兴和县",40.92223,113.81535,"A","ADM3"
2033759,"Xinghe Chengguanzhen","Xinghe Chengguanzhen","Erh-tao-ho,Hingho,Hingho-hsien,Hsing-ho,Hsing-ho-hsien,Xinghe,Xinghe Chengguanzhen,Xinghe Xian,xing he,xing he cheng guan zhen,xing he xian,兴和,兴和县,兴和城关镇",40.87556,113.88389,"P","PPLA3"
2033769,"Xing’anling Pinggang","Xing'anling Pinggang","",46.8,120.08333,"T","MT"
2033770,"Xing’anling","Xing'anling","",48.8,121.7,"P","PPL"
2033771,"Xing’anli","Xing'anli","",49.7,122.16667,"P","PPL"
2033778,"Xindianzi","Xindianzi","",40.25,112.08333,"P","PPL"
2033783,"Xindi","Xindi","Hsin-ti,Xindi",42.08694,119.89667,"P","PPL"
2033790,"Xin Bulag Dong","Xin Bulag Dong","Hsin-pao-li-ko-tung,Xin Bulag Dong",48.8,118.8,"P","PPL"
2033791,"Xin Bulag","Xin Bulag","Hobot Xar,Hsiang-huang-ch'i,Hsiang-huang-ch’i,Hsin-pao-la-ka,Hsin-pao-li-ko,Shang-tu-hsiang-huang-ch'i,Shang-tu-hsiang-huang-ch’i,Shang-tu-hsiang-huang-lien-ho-ch'i,Shang-tu-hsiang-huang-lien-ho-ch’i,Xianghuang Qi,Xin Bulag,Xinbo Lage,Xinbo Lage Zhen,xiang huang qi,xin bao la ge,xin bao la ge zhen,新宝拉格,新宝拉格镇,镶黄旗",42.2375,113.83639,"P","PPLA3"
2033796,"New Barag Right Banner","New Barag Right Banner","New Barga Right Banner,New Barga West Banner,Sin-e Barɣu Baraɣun qosiɣu,Sin-eh Baru Baraun kˌosiu,XRQ,Xin Ba'erhu Youqi,Xīn Bā'ěrhǔ Yòuqí,xin ba er hu you qi,Син-э Бару Бараун қосиу,新巴尔虎右旗,新巴爾虎右旗",48.74369,116.84987,"A","ADM3"
2033797,"Xin Barag Zuoqi","Xin Barag Zuoqi","Hsin-pa-erh-hu-tso Ch'i,Hsin-pa-erh-hu-tso Ch’i,Hsin-pa-erh-hu-tso-i Ch'i,Hsin-pa-erh-hu-tso-i Ch’i,New Barga East Banner,New Barga Left Banner,Xin Barag,Xin Barag Zuoqi,Xinba'erhu,Xinba'erhu Zuoqi,Xinba’erhu,Xinba’erhu Zuoqi,xin ba er hu,xin ba er hu zuo qi,新巴尔虎,新巴尔虎左旗",48.26691,118.27205,"A","ADM3"
2033809,"Hexixincun","Hexixincun","Hexixincun,Hsi-miao,Khusisin'tsun',Khusisin’tsun’,Simyao,Ximiao",40.98472,100.21028,"P","PPL"
2033814,"Xiluga He","Xiluga He","Hsi-lu-ka Ho,Xiluga He",42.35,118.63333,"H","STM"
2033821,"Xilin Qagan Obo","Xilin Qagan Obo","Ch'a-han-o-po-miao,Ch'a-han-o-po-su-mu,Cha-kan-ao-pao-su-mu,Ch’a-han-o-po-miao,Ch’a-han-o-po-su-mu,Hsi-lin-ch'a-kan-ao-pao,Hsi-lin-ch’a-kan-ao-pao,Xilin Qagan Obo",44.25,111.66667,"P","PPL"
2033823,"Xilinhot Shi","Xilinhot Shi","A-pa-ha-na-erh Ch'i,A-pa-ha-na-erh Ch’i,Abagnar Qi,Xilinhao Teshi,Xilinhaote,Xilinhaote Shi,Xilinhot,Xilinhot Shi,a ba ha na er qi,xi lin hao te,xi lin hao te shi,锡林浩特,锡林浩特市,阿巴哈纳尔旗",43.94851,116.0814,"A","ADM3"
2033824,"Xilin Hot","Xilin Hot","A-pa-ha-na-erh-ch'i,A-pa-ha-na-erh-ch’i,A-pa-ha-na-erh-tso-i-ch'i,A-pa-ha-na-erh-tso-i-ch’i,A-pa-ha-na-erh-yu-i-ch'i,A-pa-ha-na-erh-yu-i-ch’i,A-pa-k'a-pei-tzu-fu,A-pa-k’a-pei-tzu-fu,Abaga Pei-tzu-fu,Abagnar Qi,Hsi-lin-hao-t'e,Hsi-lin-hao-t’e,Hsi-lin-kuo-ch'in,Hsi-lin-kuo-ch’in,Pei-tzu-fu,Pei-tzu-miao,Peitzemiao,Silinghot,XIL,Xilin Hot,Xilinhaote Shi,Xilinhot,a ba ha na er qi,xi lin hao te,xi lin hao te shi,锡林浩特,锡林浩特市,阿巴哈纳尔旗",43.96667,116.03333,"P","PPL"
2033827,"Xilin Gol Meng","Xilin Gol Meng","Hsi-lin-gol Meng,Hsi-lin-kuo-le Meng,Hsi-lin-kuo-lo Meng,Hsilinkuole League,Silingol League,Xilin,Xilin Gol Meng,Xilinguole Meng,xi lin,xi lin guo lei meng,锡林,锡林郭勒盟",44.85493,115.72789,"A","ADM2"
2033828,"Xilin Gol","Xilin Gol","Hsi-lin Ho,Hsi-lin-kuo-le,Hsi-lin-kuo-lo Ho,Reka Shiliin-gol,Reka Silingol,Shara Gol,Shilon,Shirin-goru Ho,Shirinkhe,Xilin Gaole,Xilin Gol,xi lin gao lei,锡林高勒",43.91667,116.08333,"H","STM"
2033834,"Xilaotou Shan","Xilaotou Shan","",45.9,120.08333,"T","MT"
2033837,"Xil","Xil","Hsi-li,Xil",43.46972,112.13861,"P","PPL"
2033838,"Xikouzi","Xikouzi","Ch'i-ch'ien-chiu-hsien,Ch'i-ch'ien-ho,Ch'i-kan-ho,Chikan,Chiu-ch'i-ch'ien,Chiu-ch’i-ch’ien,Ch’i-ch’ien-chiu-hsien,Ch’i-ch’ien-ho,Ch’i-kan-ho,Hsi-k'ou-chu,Hsi-k'ou-tzu,Hsi-k’ou-chü,Hsi-k’ou-tzu,Hsing-lung-chen,Sikouczy,Tsigan,Xikouzi,xi kou zi,Сикоуцзы,西口子",53.13333,120.65,"P","PPL"
2033839,"Xikou","Xikou","Hsi-k'ou,Hsi-k’ou,Xikou",46.7,120.68333,"P","PPL"
2033842,"Xi Jirem","Xi Jirem","",45.6,120.6,"P","PPL"
2033844,"Xijingcun","Xijingcun","Hsi-ching-ts'un,Hsi-ching-ts’un,Xijingcun",41.78583,113.22972,"P","PPL"
2033848,"Xi Hu","Xi Hu","Xi Hu,xi hu,西湖",42.86667,120.55,"H","LK"
2033849,"Xi He","Xi He","Hsi Ho,Morin,Morin-goru Ho,Mu-Lin Ho,Reka Morin-gol,Xi He,xi he,西河",42.42694,100.90361,"H","STM"
2033867,"Xifangzicun","Xifangzicun","Hsi-fang-ts'un,Hsi-fang-ts’un,Hsi-fang-tzu-ts'un,Hsi-fang-tzu-ts’un,Xifangzicun",41.51361,113.61806,"P","PPL"
2033872,"Xidoupu","Xidoupu","Hsi-tou-p'u,Hsi-tou-p’u,Hsi-wu-t'ou-p'u,Hsi-wu-t’ou-p’u,Xidoupu,Xidoupu Zhen,Xinmin,xi dou pu,xi dou pu zhen,xin min,新民,西斗铺,西斗铺镇",41.22487,109.79811,"P","PPLA4"
2033873,"Xi Dorolj","Xi Dorolj","Hsi-tu-erh-chi,Xi Dorolj",44.61667,121.16667,"P","PPL"
2033883,"Xibo He","Xibo He","Hsi-po Ho,Xibo He,xi po he,锡泊河",42.33333,118.88333,"H","STM"
2033884,"Xibet","Xibet","",42.2,113.7,"P","PPL"
2033889,"Xibe Hua","Xibe Hua","Hsi-po-hua,Xibe Hua",44.05,121.7,"P","PPL"
2033898,"Xiaximian Shan","Xiaximian Shan","Hsia-hsi-mien Shan,Xiaximian Shan",42.79194,117.49056,"T","MT"
2033901,"Xiawa","Xiawa","Hsia-wa,Xiawa,Xiawa Zhen,xia wa,xia wa zhen,下洼,下洼镇",42.58628,120.53934,"P","PPLA4"
2033903,"Xiatoudi","Xiatoudi","Hsia-t'ou-ti,Hsia-t’ou-ti,Xiatoudi",42.91667,118.18333,"P","PPL"
2033908,"Xiashanwan","Xiashanwan","Hsia-shan-wan,Xiashanwan",44.1,119.4,"P","PPL"
2033915,"Xiaoyangqi","Xiaoyangqi","Hsiao-yang-ch'i,Hsiao-yang-ch’i,Xiaoyangqi,Xiaoyangqi Zhen,xiao yang qi,xiao yang qi zhen,小杨气,小杨气镇",50.8,124.28333,"P","PPLA4"
2033919,"Xiaoxiangshui","Xiaoxiangshui","Hsiao-hsiang-shui,Hsiao-hsiang-shui-miao,Xiaoxiangshui",42.96972,119.89139,"P","PPL"
2033935,"Xiaoshetai","Xiaoshetai","Hsiao-nai-ta,Hsiao-she-t'ai,Hsiao-she-ta,Hsiao-she-t’ai,Syaonayda,Xiaoshetai",41.2,109.5,"P","PPL"
2033941,"Xiaopaozi","Xiaopaozi","",45.1,116.6,"P","PPL"
2033957,"Xiaojingzi","Xiaojingzi","",43.56667,116.1,"P","PPL"
2033959,"Xiaojieji","Xiaojieji","Hsiao-chieh-chi,Xiaojieji",43.88333,121.51667,"P","PPL"
2033966,"Xiaohezi","Xiaohezi","Hsiao-ho-tzu,Hsiao-yo-tzu,Hsieh-ho-tzu,Shakhedzo,She-ho-tzu,Shekhetszy,Shu-ho-tzu,Xiaohezi",50.31667,119.4,"P","PPL"
2033968,"Xiaoheyan","Xiaoheyan","Hsiao-ho-yen,Xiaoheyan,Xinanwanzi",42.4375,119.57111,"P","PPL"
2033971,"Xiaohaizi","Xiaohaizi","",41.49333,113.73278,"P","PPL"
2033977,"Xiao’ergou","Xiao'ergou","Hsiao-erh-kou,Xiao'ergou,Xiao’ergou",49.2,123.75,"P","PPL"
2033987,"Xiaochengzi","Xiaochengzi","Hsiao-ch'eng-tzu,Hsiao-ch’eng-tzu,Xiaochengzi",43.4,118.15,"P","PPL"
2033989,"Xiaochengzi","Xiaochengzi","Hsiao-ch'eng-tzu,Hsiao-ch’eng-tzu,Ning-ch'eng,Ning-ch’eng,Ta-ning,Xiaochengzi",41.75,118.98333,"P","PPL"
2034000,"Xianjin","Xianjin","",42.56556,121.76639,"P","PPL"
2034007,"Xiangyang","Xiangyang","",43.3,123.63333,"P","PPL"
2034017,"Xianghuang Qi","Xianghuang Qi","Hobot Xar Qi,Hsiang-huang Ch'i,Hsiang-huang Ch’i,Xianghuang,Xianghuang Qi,xiang huang,xiang huang qi,镶黄,镶黄旗",42.31009,114.09181,"A","ADM3"
2034049,"Xebert","Xebert","She-po-t'u,She-po-t’u,Xebert",44.03333,122,"P","PPL"
2034050,"Xar Tal","Xar Tal","",43.06667,119.31667,"P","PPL"
2034051,"Xar Moron Sum","Xar Moron Sum","Sha-erh-mo-jen-so-mu,Shara Moron Sume,Shara Mörön Süme,Xar Moron Sum",42.03528,111.52667,"P","PPL"
2034052,"Xar Moron He","Xar Moron He","Hsi-la-mu-lun Ho,Hsila Murun,Shara Moron,Shara Muren,Shara Mörön,Shira Muren,Upper Liao,Xar Moron He",43.41667,120.75,"H","STM"
2034053,"Xar Hudag","Xar Hudag","Hsi-la-hu-tu-ko,Hsi-ya-la-huo-to-chia,Xar Hudag",45.1,114.45,"P","PPL"
2034054,"Xar Holoi","Xar Holoi","Sharihaolai,Sharihaolai Zhen,Xar Holoi,sha ri hao lai,sha ri hao lai zhen,沙日浩来,沙日浩来镇",42.55994,120.75442,"P","PPLA4"
2034055,"Xar Gut","Xar Gut","",46.61667,118.7,"P","PPL"
2034056,"Xar Burd","Xar Burd","Sha-erh-pu-jih-tu,Xar Burd",40.16111,104.80722,"P","PPL"
2034058,"Xangd Sum","Xangd Sum","Hsiang-t'ien-su-mu,Hsiang-t’ien-su-mu,Shan-tu-miao,Xangd Sum",42.91667,115.025,"P","PPL"
2034059,"Xangdin Hural","Xangdin Hural","Shan-ting-hu-la-erh,Xangdin Hural",42.83333,110.58333,"P","PPL"
2034060,"Xangd","Xangd","",42.9,115,"P","PPL"
2034061,"Xangd","Xangd","Shang-tan,Xangd",40.2,104,"P","PPL"
2034062,"Xamba","Xamba","Hang-chin-hou-ch'i,Hang-chin-hou-ch’i,Hanggin Houqi,Hangginhou Qi,Hsia-pa,Shan'ba,Shan-pa,Shan-pa-chen,Shan-pa-shih,Shanba,Shanba Zhen,Shan’ba,Shenpa,T'ai-an-chen,T’ai-an-chen,Xamba,hang jin hou qi,shan ba,shan ba zhen,杭锦后旗,陕坝,陕坝镇",40.88472,107.14,"P","PPLA3"
2034063,"Xabart","Xabart","Hsi-po-erh-t'u,Hsi-po-erh-t’u,Xabart",49.8,119.91667,"P","PPL"
2034069,"Wuyuanzhan","Wuyuanzhan","",40.9,108.03333,"P","PPL"
2034070,"Wuyuan Xian","Wuyuan Xian","Wu-yuan Hsien,Wu-yüan Hsien,Wuyuan,Wuyuan Xian,wu yuan,wu yuan xian,五原,五原县",41.00733,108.11221,"A","ADM3"
2034071,"Wuyuan","Wuyuan","Lung-hsing-ch'ang,Lung-hsing-ch’ang,Wu-yuan-hsien,Wu-yüan-hsien,Wuyuan",41.08917,108.27222,"P","PPL"
2034074,"Wuyi Muchang","Wuyi Muchang","Wu-i-mu-ch'ang,Wu-i-mu-ch’ang,Wuyi Muchang",42.37111,116.31167,"P","PPLF"
2034080,"Wutonghaolai","Wutonghaolai","Wu-t'ung-hao-lai,Wu-t’ung-hao-lai,Wutonghaolai",42.83333,120.2,"P","PPL"
2034091,"Wulu Butie","Wulu Butie","Wu-lu-pu-t'ieh,Wu-lu-pu-t’ieh,Wulu Butie,Wulu Butie Zhen,wu lu bu tie,wu lu bu tie zhen,乌鲁布铁,乌鲁布铁镇",49.8925,124.34611,"P","PPLA4"
2034104,"Ul Shan","Ul Shan","Ul Shan,Wu-la-shan Shan-mo,Wula Shan",40.7125,109.15944,"T","MTS"
2034105,"Xiwulan Bulang","Xiwulan Bulang","Ch'ien-wu-lan-pu-lang,Ch’ien-wu-lan-pu-lang,Ulan-Bulang,Ulanbulan,Wu-lan-pu-lang,Wulanbulang,Wulangpulang,Xiwulan Bulang,Xiwulan Bulang Xiang,wu lan bu lang,xi wu lan bu lang,xi wu lan bu lang xiang,乌兰不浪,西乌兰不浪,西乌兰不浪乡",41.11863,110.9692,"P","PPLA4"
2034114,"Wujia He","Wujia He","Utszyakhe,Wu-chia Ho,Wujia He",40.86556,108.80806,"H","STM"
2034115,"Wujiahe","Wujiahe","Wu-chia-ho,Wujiahe",41.25,108.03333,"P","PPL"
2034121,"Wufendi","Wufendi","Wu-fen-ti,Wufendi",43.21667,118.55,"P","PPL"
2034135,"Wudan","Wudan","Ch'uan-ning,Ch’üan-ning,Ongniud Qi,Vennyutetsi,Weng-niu-t'e-ch'i,Weng-niu-t’e-ch’i,Wengniute Qi,Wu-tan,Wu-tan-ch'eng,Wu-tan-ch’eng,Wudan,Wudan Zhen,weng niu te qi,wu dan,wu dan zhen,乌丹,乌丹镇,翁牛特旗",42.93444,119.02389,"P","PPLA3"
2034139,"Wuchuan Xian","Wuchuan Xian","Wu-ch'uan Hsien,Wu-ch’uan Hsien,Wuchuan,Wuchuan Xian,wu chuan,wu chuan xian,武川,武川县",41.10202,111.44734,"A","ADM3"
2034142,"Wuchagou","Wuchagou","Wu-ch'a-kou,Wu-ch’a-kou,Wu-i-kou,Wuchagou,Wuchagou Zhen,wu cha gou,wu cha gou zhen,五岔沟,五岔沟镇",46.74103,120.30775,"P","PPLA4"
2034144,"Wubairha","Wubairha","Wu-pai-erh-ha,Wubairha",41.85861,106.24472,"P","PPL"
2034150,"Woniuhe","Woniuhe","Woniuhe,Woniuhe Zhen,wo niu he,wo niu he zhen,卧牛河,卧牛河镇",48.10105,122.65787,"P","PPLA4"
2034164,"Wenquan","Wenquan","Ta Kei Kou,Wen-ch'uan,Wen-ch’üan,Wenquan",47.31667,120.38333,"P","PPL"
2034166,"Wenkutu","Wenkutu","Wenkutu,Wenkutu Xiang,wen ku tu,wen ku tu xiang,温库图,温库图乡",49.44647,122.48447,"P","PPLA4"
2034215,"Wangyedian","Wangyedian","Wang-yeh-tien,Wangyedian",41.65,118.36667,"P","PPL"
2034278,"Wafang","Wafang","",43.41667,121.71667,"P","PPL"
2034279,"Wafang","Wafang","",42.83333,121.98333,"P","PPL"
2034282,"Usan Turu","Usan Turu","",43.83333,116.88333,"P","PPL"
2034284,"Urad Middle Banner","Urad Middle Banner","Urad,Urad Central and Rear Union Banner,Urad Middle Banner,Urad Zhongqi,Urat Center and North United Banner,WZQ,Wulate,Wulate Central and Rear Union Banner,Wulate Zhong Qi,Wūlātè Zhōng Qí,wu la te zhong qi,乌拉特中旗,烏拉特中旗",41.72108,108.39101,"A","ADM3"
2034285,"Urad Qianqi","Urad Qianqi","South Urat Banner,Urad,Urad Front Banner,Urad Qianqi,Urat South Banner,Wu-la-t'e-ch'ien Ch'i,Wu-la-t’e-ch’ien Ch’i,Wulat'e Front Banner,Wulate,Wulate Qianqi,Wulat’e Front Banner,wu la te,wu la te qian qi,乌拉特,乌拉特前旗",40.89442,109.10132,"A","ADM3"
2034286,"Urad Houqi","Urad Houqi","Ch'ao-ko Ch'i,Ch’ao-ko Ch’i,Qog Qi,Urad,Urad Houqi,Wulate,Wulate Houqi,chao ge qi,wu la te,wu la te hou qi,乌拉特,乌拉特后旗,潮格旗",41.45034,106.52544,"A","ADM3"
2034288,"Unegq","Unegq","Unegq,Wu-na-ko-ch'i,Wu-na-ko-ch’i",44.76667,121.16667,"P","PPL"
2034289,"Uneget","Uneget","",44.9,117.8,"P","PPL"
2034290,"Uma","Uma","Uma,Wu-ma,Ума",52.56667,120.73333,"P","PPL"
2034291,"Uljir","Uljir","Ao-chi,Uljir",42.4,120.3,"P","PPL"
2034292,"Uliastai","Uliastai","Dong Ujimqin Qi,Dongwuzhumuqin Qi,Dun'uchzhumutsintsi,Dun’uchzhumutsintsi,La-ma-k'u-lieh-miao,La-ma-k'u-lien-miao,La-ma-k'u-lun-miao,La-ma-k’u-lieh-miao,La-ma-k’u-lien-miao,La-ma-k’u-lun-miao,Lamakhure Sume,Lamakoulun,Lamakoulunmiao,Lamakulienmiay,Ramakuresumu,Ramakuresūmu,Sumoyn Khuren Sume,Sumyyn Khuren'-Sume,Sumyyn Khuren’-Sume,Tung-wu-chu-mu-ch'in-ch'i,Tung-wu-chu-mu-ch’in-ch’i,Uliastai,Wu-li-ya-ssu-t'ai,Wu-li-ya-ssu-t’ai,Wuliyasitai,Wuliyasitai Zhen,dong wu zhu mu qin qi,la ma ku lun miao,wu li ya si tai,wu li ya si tai zhen,东乌珠穆沁旗,乌里雅斯太,乌里雅斯太镇,喇嘛库伦庙",45.55,116.83333,"P","PPLA3"
2034293,"Ulgain Gol","Ulgain Gol","Lu-k'en Ho,Lu-k’en Ho,Ulgain Gol,Wu-erh-kai-kuo-lo,Wu-la-kai-kuo-le,Wu-la-ken-kuo-lo,Wu-li-le-chi Ho,Wu-li-lo-chi Ho,Wu-lo-kai Ho,Wu-lu-lun-k'uei,Wu-lu-lun-k’uei,Wuliloki",45.71667,118.18333,"H","STM"
2034294,"Ulgain Gobi","Ulgain Gobi","",45.43333,117.5,"H","LK"
2034295,"Ulgai","Ulgai","Ulgai,Wu-la-kai",45.7,118.46667,"P","PPL"
2034297,"Ulan Tug","Ulan Tug","",42.88333,120.11667,"P","PPL"
2034298,"Ulan Tohoi","Ulan Tohoi","Ulan Tohoi,Wu-lan-t'ao-hai,Wu-lan-t’ao-hai",40.92028,101.44917,"P","PPL"
2034299,"Ulan Sum","Ulan Sum","Ulan Sum,Ulan Sum He",42.26056,110.51167,"P","PPL"
2034300,"Ulansu Hai","Ulansu Hai","Ozero Ulasu,Ozero Ulasu-Khaytszy,Ozero Ulasukhay,Ulansu Hai,Ulansuhai Nur,Ulasan Nuur,Wu-la-su Hai,Wu-lan-su Hai,Wu-liang-su Hai",40.895,108.85472,"H","LK"
2034301,"Ulan Suhai","Ulan Suhai","Ulan Suhai,Wu-lan-hu-hai",41.18333,104.18333,"P","PPL"
2034302,"Ulan Suhai","Ulan Suhai","Ulan Suhai,Wu-lan-so-hai",40.71667,107.6,"P","PPL"
2034303,"Wulanchabu Shi","Wulanchabu Shi","Olanchab League,Ulanchab League,Ulanchap League,Ulanqab,Ulanqab Meng,Ulanqab Shi,Wu-lan-ch'a-pu Meng,Wu-lan-ch’a-pu Meng,Wulanchabu,Wulanchabu Shi,wu lan cha bu,wu lan cha bu shi,ᠤᠯᠠᠭᠠᠨᠴᠠᠪ ᠬᠣᠲᠠ,乌兰察布,乌兰察布市",41.73375,112.09115,"A","ADM2"
2034304,"Ulan Qab Sum","Ulan Qab Sum","O-lan-chieh-min-su-mu,Ulan Qab,Ulan Qab Sum",42.71972,114.57694,"P","PPL"
2034305,"Ulan Od","Ulan Od","Ulan Od,Wu-lan-ao-tao",43.56667,122.66667,"P","PPL"
2034307,"Ulan Hudag","Ulan Hudag","",41.6,109.83333,"P","PPL"
2034309,"Ulan Hua","Ulan Hua","Ulan Hua,Wu-lan-hua",41.99833,113.05167,"P","PPL"
2034310,"Ulan Hua","Ulan Hua","Dorbod Qi,Durben Khukhut Banner,Siziwang Qi,Ssu-tzu-wang-ch'i,Ssu-tzu-wang-ch’i,Ulan Hua,Ulan'khua,Ulan’khua,Wu-lan-hua,Wu-lan-hua-chen,Wulanhua,Wulanhua Zhen,si zi wang qi,wu lan hua,wu lan hua zhen,乌兰花,乌兰花镇,四子王旗",41.51306,111.69639,"P","PPLA3"
2034311,"Ulanhot Shi","Ulanhot Shi","Ulan Hot Shi,Ulanhot,Ulanhot Shi,Wu-lan-hao-t'e Shih,Wu-lan-hao-t’e Shih,Wulanhao Teshi,Wulanhaote,Wulanhaote Shi,wu lan hao te,wu lan hao te shi,乌兰浩特,乌兰浩特市",46.10558,122.08576,"A","ADM3"
2034312,"Ulanhot","Ulanhot","HLH,Horqin Youyi Qianqi,Huai-yuan-chen,Huai-yuän-chen,K'o-erh-ch'in-yu-ch'ien-ch'i,K'o-erh-ch'in-yu-i-ch'ien-ch'i,K’o-erh-ch’in-yu-ch’ien-ch’i,K’o-erh-ch’in-yu-i-ch’ien-ch’i,Ulan Hot,Ulan Hoto,Ulan-Khoto,Ulanhot,Ulanhot Shi,Van''yemyao,Van’’yemyao,Wang-yeh-miao,Wangyemiao,Wu-lan-hao-t'e,Wu-lan-hao-t'e-shih,Wu-lan-hao-t’e,Wu-lan-hao-t’e-shih,Wulanhaote Shi,wang ye miao,wu lan hao te,wu lan hao te shi,乌兰浩特,乌兰浩特市,王爷庙",46.08333,122.08333,"P","PPL"
2034313,"Ulan Holoi","Ulan Holoi","Ulan Holoi,Wu-lan-hao-lai",40.4,109.23333,"P","PPL"
2034314,"Ulan Hobor","Ulan Hobor","Ulan Hobor,Wu-lan-hou-pu-erh",44.35,114.9,"P","PPL"
2034315,"Ulan Had","Ulan Had","Ulan Had,Wu-lan-hu-ta",45.28333,120.55,"P","PPL"
2034316,"Wulan Hada","Wulan Hada","Ulan Had,Ulan Had Sum,Wu-lan-ha-ta,Wulan Hada,Wulan Hada Sumu,wu lan ha da,wu lan ha da su mu,乌兰哈达,乌兰哈达苏木",41.63014,113.18555,"P","PPLA4"
2034317,"Ulan Buh Shamo","Ulan Buh Shamo","Ulan Buh Shamo,Ulanpuho Sands,Wu-lan-pu-ho Sha-mo",40.4,106.49972,"T","DSRT"
2034318,"Xingedan","Xingedan","Ulan,Xingedan",40.45194,109.30778,"P","PPL"
2034319,"Ul","Ul","",43.30083,122.62444,"P","PPL"
2034320,"Uher Hudag","Uher Hudag","Uher Hudag,Wu-k'o-hu-tung,Wu-k’o-hu-tung",41.41667,110.48333,"P","PPL"
2034322,"Tuquan Xian","Tuquan Xian","T'u-ch'uan Hsien,Tuquan,Tuquan Xian,T’u-ch’üan Hsien,tu quan,tu quan xian,突泉,突泉县",45.6119,121.55039,"A","ADM3"
2034323,"Tuquan","Tuquan","K'o-erh-ch'in-yu-i-chung-ch'i,K’o-erh-ch’in-yu-i-chung-ch’i,Li-ch'uan,Li-ch’üan,T'u-ch'uan,T'u-ch'uan-chen,T'u-ch'uan-hsien,Tuquan,Tuquan Xian,Tuquan Zhen,Tutsyuan',Tutsyuan’,T’u-ch’üan,T’u-ch’üan-chen,T’u-ch’üan-hsien,tu quan,tu quan xian,tu quan zhen,突泉,突泉县,突泉镇",45.40304,121.60462,"P","PPLA3"
2034326,"Tuozaminnutuke","Tuozaminnutuke","T'o-cha-min-nu-t'u-k'o,Tuozaminnutuke,Tuozhamin,Tuozhamin Xiang,Tuozhaminnutuke,T’o-cha-min-nu-t’u-k’o,tuo zha min,tuo zha min xiang,托扎敏,托扎敏乡",50.15944,123.10306,"P","PPLA4"
2034330,"Tunkendui","Tunkendui","T'un-k'en-tui,T'un-k'en-tui-ts'un,Tunkendui,T’un-k’en-tui,T’un-k’en-tui-ts’un",41.75111,113.45,"P","PPL"
2034341,"Tumd Zouqi","Tumd Zouqi","T'u-mo-t'e-tso Ch'i,Tumd,Tumd Zouqi,Tumed Zuoqi,Tumet East Banner,Tumote,Tumote Zuoqi,Tumotezuo Qi,T’u-mo-t’e-tso Ch’i,tu mo te,tu mo te zuo qi,土默特,土默特左旗",40.7338,111.10343,"A","ADM3"
2034342,"Tumd Youqi","Tumd Youqi","T'u-mo-t'e-yu Ch'i,Tumd,Tumd Youqi,Tumed Youqi,Tumet West Banner,Tumote,Tumote Youqi,T’u-mo-t’e-yu Ch’i,tu mo te,tu mo te you qi,土默特,土默特右旗",40.55706,110.51649,"A","ADM3"
2034344,"Tulihe","Tulihe","T'u-li-ho,Tulihe,Tulihe Zhen,T’u-li-ho,tu li he,tu li he zhen,图里河,图里河镇",50.48354,121.67443,"P","PPLA4"
2034345,"Tuligen He","Tuligen He","T'u-li-ken Ho,Tuligen He,T’u-li-ken Ho",42.22361,116.62611,"H","STM"
2034346,"Tule Mod","Tule Mod","T'u-lieh-mao-tu,Tule Mod,Tuliemaodu,Tuliemaodu Zhen,T’u-lieh-mao-tu,tu lie mao dou,tu lie mao dou zhen,吐列毛都,吐列毛都镇",45.55,120.86667,"P","PPLA4"
2034347,"Tui Lamin Sum","Tui Lamin Sum","T'ui- la-ma-miao,Tui Lamin Sum,T’ui- la-ma-miao",41.93333,110.76667,"P","PPL"
2034352,"Tuchengzi","Tuchengzi","T'u-ch'eng-tzu,T'u-ch'eng-tzu-ts'un,Tuchengzi,T’u-ch’eng-tzu,T’u-ch’eng-tzu-ts’un",43.1,118.33333,"P","PPL"
2034353,"Tuchengzi","Tuchengzi","Tuchengzi,Tuchengzi Zhen,tu cheng zi,tu cheng zi zhen,土城子,土城子镇",42.33915,120.80758,"P","PPLA4"
2034354,"Tuchengzi","Tuchengzi","",41.72167,114.10972,"P","PPL"
2034359,"Tubxin","Tubxin","",48.33333,123.76667,"P","PPL"
2034360,"Tubxin","Tubxin","",44.33333,123,"P","PPL"
2034369,"Tuanjie","Tuanjie","",41.1,107.3,"P","PPL"
2034371,"Touzhijian","Touzhijian","",41.96389,115.25639,"P","PPL"
2034378,"Toufendi","Toufendi","T'ou-fen-ti,Toufendi,T’ou-fen-ti",43.1,118.68333,"P","PPL"
2034382,"Toudaoqiao","Toudaoqiao","T'ou-tao-ch'iao,Toudaoqiao,T’ou-tao-ch’iao",40.58056,107.12361,"P","PPL"
2034383,"Toudaojing","Toudaojing","",43.06667,112.7,"P","PPL"
2034391,"Tost","Tost","T'ao-ssu-t'u,Tost,T’ao-ssu-t’u",40.19556,106.94611,"P","PPL"
2034394,"Tongxing","Tongxing","T'ung-hsing,Tongxing,T’ung-hsing",43.75,117.63333,"P","PPL"
2034398,"Horqin Qu","Horqin Qu","Horqin,Horqin Qu,Ke'erqin,Ke'erqin Qu,Ke’erqin,Ke’erqin Qu,T'ung-liao Shih,Tongliao Shi,T’ung-liao Shih,ke er qin,ke er qin qu,科尔沁,科尔沁区",43.62642,122.26975,"A","ADM3"
2034399,"Tongliaodong","Tongliaodong","",43.63333,122.36667,"P","PPL"
2034400,"Tongliao","Tongliao","Bayan Tala,Horqin Qu,Ke'erqin Qu,Ke’erqin Qu,Pa-lin-ai-hsin,Pai-an-ta-la,Pai-yin-t'ai-lai,Pai-yin-t’ai-lai,Payintala,T'ung-liao,T'ung-liao-hsien,T'ung-liao-shih,TGO,Thong Lieu,Thong-liau-chhi,Thong-liâu-chhī,Thung-liau-su,Thông Liêu,Thûng-liàu-sṳ,Tongliao,Tongliao Shi,Tonljao khot,Tung-lieu,Tunglao,Tungliaochen,Tunljao,Tŭng-lièu,T’ung-liao,T’ung-liao-hsien,T’ung-liao-shih,ba yan ta la,ke er qin qu,tong liao,tong liao shi,tunglyao si,twnglyaw,Тонляо хот,Тунгљао,Тунляо,تونگلیاو,ٹونگلیاو,巴彦塔拉,科尔沁区,通辽,通辽市,通遼,通遼市,퉁랴오 시",43.6125,122.26528,"P","PPLA2"
2034421,"Tongbu","Tongbu","",43.93333,117.96667,"P","PPL"
2034423,"Tumu’ertai","Tumu'ertai","Ch'a-ha-erh-yu-hou-ch'i,Ch’a-ha-erh-yu-hou-ch’i,T'u-mu-erh-t'ai,T'u-mu-lu-t'ai,T'u-mu-t'ai-erh,Tomortai,Tomortai Zhen,Tomortei,Tumourtai,Tumu'ertai,Tumu'ertai Zhen,Tumu’ertai,Tumu’ertai Zhen,T’u-mu-erh-t’ai,T’u-mu-lu-t’ai,T’u-mu-t’ai-erh,tu mu er tai,tu mu er tai zhen,土木尔台,土木尔台镇",41.84228,113.14286,"P","PPLA4"
2034424,"Tohom","Tohom","T'u-k'u-mu,Tohom,T’u-k’u-mu",40.69694,105.72472,"P","PPL"
2034426,"Tohom","Tohom","T'u-ho-mu-miao,Tohmin Sum,Tohom,T’u-ho-mu-miao",42.65278,110.97417,"P","PPL"
2034427,"Togtoh Xian","Togtoh Xian","T'o-k'o-t'o Hsien,T'ok'et'o Hsien,Togtoh,Togtoh Xian,Tuoketuo,Tuoketuo Xian,T’o-k’o-t’o Hsien,T’ok’et’o Hsien,tuo ke tuo,tuo ke tuo xian,托克托,托克托县",40.29671,111.15979,"A","ADM3"
2034428,"Togtoh","Togtoh","T'o-k'o-t'o,T'o-k'o-t'o-hsien,Togtoh,Tohoto,Toketo,T’o-k’o-t’o,T’o-k’o-t’o-hsien",40.27583,111.1475,"P","PPL"
2034429,"Togs","Togs","",45.6,119.96667,"P","PPL"
2034430,"Togrog Ul","Togrog Ul","Ch'a-ha-erh-yu-ch'ien-ch'i,Ch'a-ha-erh-yu-i-ch'ien-ch'i,Ch'a-yu-ch'ien-ch'i,Chaha'eryouyiqian Qi,Chaha’eryouyiqian Qi,Ch’a-ha-erh-yu-ch’ien-ch’i,Ch’a-ha-erh-yu-i-ch’ien-ch’i,Ch’a-yu-ch’ien-ch’i,Kuan-ts'un,Kuan-ts’un,Qahar Youyi Qianqi,T'u-kuei-wu-la,Togrog Ul,Togrog Ul Xiang,Tuguiwula,Tuguiwula Zhen,T’u-kuei-wu-la,cha ha er you yi qian qi,tu gui wu la,tu gui wu la xiang,tu gui wu la zhen,土贵乌拉,土贵乌拉乡,土贵乌拉镇,察哈尔右翼前旗",40.7867,113.205,"P","PPLA3"
2034431,"Tobq","Tobq","T'ao-pu-ch'i,T'ao-pu-ch'i-ts'un,Tobq,T’ao-pu-ch’i,T’ao-pu-ch’i-ts’un",40.87917,112.07611,"P","PPL"
2034434,"Tieniu","Tieniu","",42.81667,122.6,"P","PPL"
2034442,"Tieguya","Tieguya","",50.53333,123.38333,"P","PPL"
2034452,"Tianyi","Tianyi","Ninchen,Ningcheng,Ningcheng Xian,T'ien-i,T'ien-i-hao,Tianyi,Tianyi Zhen,T’ien-i,T’ien-i-hao,ning cheng xian,tian yi,tian yi zhen,天义,天义镇,宁城县",41.56667,119.33333,"P","PPLA3"
2034454,"Tiantaiyong","Tiantaiyong","T'ien-t'ai-yung,Tiantaiyong,T’ien-t’ai-yung",42.77778,117.24194,"P","PPL"
2034459,"Tianshankou","Tianshankou","T'ien-shan-k'ou,Tianshankou,Tianshankouzhen,T’ien-shan-k’ou,tian shan kou,tian shan kou zhen,天山口,天山口镇",43.75623,120.15126,"P","PPL"
2034460,"Tianshan","Tianshan","A-lu-k'o-erh-ch'in-ch'i,A-lu-k’o-erh-ch’in-ch’i,Ar Horqin Qi,Ch'a-pu-kan-miao,Ch’a-pu-kan-miao,T'ien-shan,Tianshan,Tianshan Zhen,T’ien-shan,a lu ke er qin qi,tian shan,tian shan zhen,天山,天山镇,阿鲁科尔沁旗",43.88737,120.09336,"P","PPLA3"
2034474,"Tiancheng","Tiancheng","T'ien-ch'eng-ts'un,Tiancheng,T’ien-ch’eng-ts’un",40.5,112.86667,"P","PPL"
2034475,"Tiancang","Tiancang","T'ien-ts'ang,Tiancang,T’ien-ts’ang",40.96667,100.15,"P","PPL"
2034478,"Tengke","Tengke","Tengke,Tengke Xiang,teng ke,teng ke xiang,腾克,腾克乡",49.01107,124.7251,"P","PPLA4"
2034489,"Tara Gol","Tara Gol","T'a-la-kou,Tara Gol,Tara Gol Xiang,Tarian Gol,T’a-la-kou",40.08222,109.03528,"P","PPL"
2034490,"Tarian","Tarian","",44.5,116.2,"P","PPL"
2034491,"Tarhu","Tarhu","T'a-erh-hu,Tarhu,T’a-erh-hu,Yen-chiang",41.07944,107.8775,"P","PPL"
2034493,"Targan Obo","Targan Obo","",46.3,117.4,"P","PPL"
2034501,"Taojiaying","Taojiaying","T'ao-chia-ying,Taojiaying,T’ao-chia-ying",41.63333,118.56667,"P","PPL"
2034538,"Tamsag Muchang","Tamsag Muchang","Ta-mu-su-mu-ch'ang,Ta-mu-su-mu-ch’ang,Tamsag Muchang",40.25,103.01667,"P","PPLF"
2034539,"Har Borog","Har Borog","Har Borog,T'a-mu-su-pu-lu-ko,Tamsag Bulag,T’a-mu-su-pu-lu-ko",40.8225,103.67,"P","PPL"
2034542,"Talangkong","Talangkong","T'a-lang-k'ung,Talangkong,T’a-lang-k’ung",51.75,122.03333,"P","PPL"
2034544,"Taketu","Taketu","T'a-k'o-t'u,Taketu,T’a-k’o-t’u",45.8,121.63333,"P","PPL"
2034548,"Taizi","Taizi","T'ai-tzu,Taizi,T’ai-tzu",42.63333,118.26667,"P","PPL"
2034550,"Taiyangmiao","Taiyangmiao","Taiyangmiao,Taiyangmiao Xiang,Tayyan myao",40.78333,106.53333,"P","PPL"
2034572,"Taiping Ling","Taiping Ling","Taiping Ling,tai ping ling,太平岭",47.45394,120.45951,"T","MT"
2034593,"Taiping","Taiping","",43.4,121.85,"P","PPL"
2034594,"Taipenzhan","Taipenzhan","T'ai-pen,T'ai-pen-chan,Ta-pen-chan,Taipenzhan,T’ai-pen,T’ai-pen-chan",45.71667,122.7,"P","PPL"
2034597,"Tailiang","Tailiang","T'ai-ling,Tailiang,T’ai-ling",40.88222,109.40361,"P","PPL"
2034603,"Taihe","Taihe","",45.5,121.36667,"P","PPL"
2034607,"Taidong","Taidong","",45.5,121.6,"P","PPL"
2034608,"Taibus Qi","Taibus Qi","T'ai-p'u-ssu Ch'i,Taibus,Taibus Qi,Taipus Banner,Taipusi,Taipusi Qi,T’ai-p’u-ssu Ch’i,tai pu si,tai pu si qi,太仆寺,太仆寺旗",41.87509,115.30706,"A","ADM3"
2034612,"Tahilin Us","Tahilin Us","",42,111.95,"P","PPL"
2034619,"Tabin Sum","Tabin Sum","T'ai-pen-miao,Tabin Sum,T’ai-pen-miao",44.58333,118.5,"P","PPL"
2034621,"Taban Han Gol","Taban Han Gol","Hsi-la Ho,Hsi-la-mu-lin Ho,Hsi-la-mu-lun Ho,Reka Shara-Muren',Reka Shara-Muren’,Sha-la Ho,Sha-la-mu-lun Ho,Shara Moron,Shara Mörön,Shira Muren,T'a-pu Ho,Taban Han Gol,T’a-pu Ho,Xar Moron",42.81667,111.1,"H","STM"
2034624,"Suqin Huimin","Suqin Huimin","Su-ch'in,Su-ch’in,Sucin',Suqin,Suqin Huimin,Suqin Huimin Xiang,su qin hui min,su qin hui min xiang,Суцинь,苏沁回民,苏沁回民乡",50.45648,119.77245,"P","PPLA4"
2034642,"Suj","Suj","Su-chi,Suj",43.53333,119.23333,"P","PPL"
2034643,"Suj","Suj","",42.30611,111.12,"P","PPL"
2034644,"Suj","Suj","Su-chi,Suj",42.06667,107.95,"P","PPL"
2034645,"Suj","Suj","Su-chi,Suj",40.96667,113.16667,"P","PPL"
2034663,"Suhai Obo","Suhai Obo","Su-hai-ao-pao,Suhai Obo",40.31667,106.41667,"P","PPL"
2034665,"Sugehe","Sugehe","Su-ko-ho,Sugehe,Sugehe Xiang,Sugehkheh,su ge he,su ge he xiang,Сугэхэ,苏格河,苏格河乡",48.16667,121.23333,"P","PPLA4"
2034667,"Subrag","Subrag","So-pu-li-ka,Subrag,Suobo Riga,Suobo Riga Sumu,suo bo ri ga,suo bo ri ga su mu,索博日嘎,索博日嘎苏木",44.2,118.46667,"P","PPLA4"
2034669,"So’on","So'on","",46.6,121.2,"P","PPL"
2034670,"Sonid Zuoqi","Sonid Zuoqi","East Sunit Banner,Left Sunit,Sonid,Sonid Zuoqi,Su-ni-t'e-tso-ch'i,Su-ni-t’e-tso-ch’i,Sunid Left Banner,Sunit East Banner,Sunit'e Left Banner,Sunite,Sunite Zuoqi,Sunit’e Left Banner,su ni te,su ni te zuo qi,苏尼特,苏尼特左旗",43.97096,113.22923,"A","ADM3"
2034671,"Sonid Youqi","Sonid Youqi","Right Sunid Banner,Sonid,Sonid Youqi,Su-ni-t'e-yu Ch'i,Su-ni-t’e-yu Ch’i,Sunit West Banner,Sunite,Sunite Youqi,West Sunid Banner,su ni te,su ni te you qi,苏尼特,苏尼特右旗",42.8373,112.87195,"A","ADM3"
2034687,"Songling","Songling","I-erh-wu-kung-li,Songling,Sung-ling",48.05,121.11667,"P","PPL"
2034701,"Solon","Solon","Haganera,Haganēra,Hsia-mu-chu,Hsia-mu-chu-tzu,Hsia-mu-chü-tzu,Sholun,So-lun,So-lun-hsien,So-lun-shan,Solon",46.6,121.28333,"P","PPL"
2034702,"Sogo Nur","Sogo Nur","",42.2,101.03333,"P","PPL"
2034703,"Sub Nur","Sub Nur","Ozero Sogo nur,Ozero Soho-nor,So-kuo Hu,So-kuo-no-erh,Socha Nor,Sogo Nor,Sogo Nur,Sogoo Nuur,Sohonoru Hu,Su-ku-no-erh,Sub Nur,Tung-hai-tzu",42.29917,101.24611,"H","LK"
2034704,"Siziwang Qi","Siziwang Qi","Dorbod,Dorbod Qi,Durben Khukhut Banner,Siziwang Qi,Ssu-tzu-wang Ch'i,Ssu-tzu-wang Ch’i,Ssutzuwang Banner,si zi wang,si zi wang qi,四子王,四子王旗",42.0647,111.59802,"A","ADM3"
2034707,"Siyitang","Siyitang","Siyitang,Ssu-i-t'ang,Ssu-i-t’ang",41.3,108.51667,"P","PPL"
2034726,"Sijiazi","Sijiazi","Sijiazi,Ssu-chia-tzu",41.83333,120.1,"P","PPL"
2034736,"Sifentan","Sifentan","Sifentan,Ssu-fen-t'an,Ssu-fen-t’an",40.9,107.7,"P","PPL"
2034737,"Sifendi","Sifendi","",42.23333,118.53333,"P","PPL"
2034750,"Simuke","Simuke","Sidake,Simuke,si mu ke,斯木科",50.13417,122.59778,"P","PPL"
2034756,"Shumugou","Shumugou","Shu-mu-kou,Shumugou,Shumugou Xiang,shu mu gou,shu mu gou xiang,树木沟,树木沟乡",46.16667,120.8,"P","PPLA4"
2034757,"Shulinzi","Shulinzi","",40.95639,108.63083,"P","PPL"
2034758,"Shulinzhao","Shulinzhao","Dalad Qi,Dalat,Dalate Qi,O-erh-to-ssu-tso-i-hou-ch'i,O-erh-to-ssu-tso-i-hou-ch'i-wang-fu,O-erh-to-ssu-tso-i-hou-ch’i,O-erh-to-ssu-tso-i-hou-ch’i-wang-fu,Shu-lin-chao,Shulin Jo,Shulin Jo Zhen,Shulinzhao,Shulinzhao Zhen,Ta-la-t'e-ch'i,Ta-la-t’e-ch’i,da la te qi,shu lin zhao,shu lin zhao zhen,树林召,树林召镇,达拉特旗",40.39278,110.02694,"P","PPLA3"
2034766,"Shuiquan","Shuiquan","Shuiquan,Shuiquan Zhen,shui quan,shui quan zhen,水泉,水泉镇",45.49543,121.81421,"P","PPLA4"
2034767,"Shuiquan","Shuiquan","",42.55,121.36667,"P","PPL"
2034768,"Shuiquan","Shuiquan","Shui-ch'uan,Shui-ch’üan,Shuiquan",41.96667,116.46667,"P","PPL"
2034775,"Shuimotan","Shuimotan","",40.66667,110.31667,"P","PPL"
2034777,"Shuidi","Shuidi","",42.28167,119.13056,"P","PPL"
2034804,"Shuangpaozi","Shuangpaozi","",43.71667,122.18333,"P","PPL"
2034808,"Shuangmiao","Shuangmiao","",42.4075,119.94167,"P","PPL"
2034814,"Shuangjingzi","Shuangjingzi","Shuang-ching-tzu,Shuangjingzi",43.3,118.21667,"P","PPL"
2034825,"Shuanggucheng","Shuanggucheng","",40.33333,112.35,"P","PPL"
2034839,"Shizuizi Shuiku","Shizuizi Shuiku","",40.4,111.80722,"H","RSV"
2034849,"Shiyizhan","Shiyizhan","Alukhe,Ka-lu-ho,Ka-lu-ho-chan,Shih-i-chan,Shiichzhan,Shiichzhan',Shiyizhan,Шиичжань",51.11667,125.98333,"P","PPL"
2034859,"Shiwei","Shiwei","Chi-la-lin,Czilalin',Jilalin,Kilalin,Shih-wei,Shih-wei-hsien,Shivei,Shivey,Shivoi,Shiwei,Shiwei Zhen,shi wei,shi wei zhen,Цзилалинь,室韦,室韦镇",51.33333,119.9,"P","PPLA4"
2034860,"Shitou Shan","Shitou Shan","Shih-t'ou Shan,Shih-t’ou Shan,Shitou Shan,shi tou shan,石头山",51.03333,125.2,"T","MT"
2034889,"Shimenzi","Shimenzi","San-shih-chiu-ch'ien,San-shih-chiu-ch’ien,Shih-hien-tzu,Shih-men-tzi,Shih-men-tzu,Shimenzi,Shimyntszy",48.55,121.6,"P","PPL"
2034901,"Shilanji","Shilanji","",41.28056,107.49278,"P","PPL"
2034917,"Shihahe","Shihahe","",41.4,109.4,"P","PPL"
2034918,"Shiguai","Shiguai","Shiguai,Shiguai Jiedao,Shiguai Qu,Shiguaigou,Shih-kuai,Shih-kuai-chen,Shih-kuai-kou,Shih-kuai-kou-kung-ch'u,Shih-kuai-kou-kung-ch’ü,Shih-kuai-tzu,Shih-kuai-tzw,Shihkuaitsun,Xiguit Kuangqu,shi guai,shi guai jie dao,shi guai kuang qu,shi guai qu,石拐,石拐区,石拐矿区,石拐街道",40.70583,110.28556,"P","PPLA3"
2034931,"Shibatai","Shibatai","Shibatai,Shibatay,Shih-fen-t'ai,Shih-fen-t’ai,Shih-pa-t'ai,Shih-pa-t’ai",40.9,112.75,"P","PPL"
2034932,"Shibaqing","Shibaqing","Shibaqing,Shih-pa-ch'ing,Shih-pa-ch’ing",41.56944,113.85861,"P","PPL"
2034971,"Salqin","Salqin","Salqin,Sharqin",40.55833,111.73139,"P","PPL"
2034976,"Shaoleng He","Shaoleng He","Shao-leng Ho,Shaoleng He",43.2,119.3,"H","STM"
2034984,"Shanjuzi","Shanjuzi","Shan-tsui-tzu,Shanjuzi",42.85833,118.95944,"P","PPL"
2034992,"Shanqian","Shanqian","Shan-ch'ien,Shan-ch’ien,Shanqian",42.06667,119.23333,"P","PPL"
2035010,"Shangtuhai","Shangtuhai","Shangtuhai,Shangtuhai Xiang,shang tu hai,shang tu hai xiang,上秃亥,上秃亥乡",41.18189,111.31141,"P","PPLA4"
2035015,"Shangmajuan","Shangmajuan","Shang-ma-chuan,Shang-ma-chüan,Shangmajuan",41.38333,118.58333,"P","PPL"
2035017,"Shangkuli","Shangkuli","Shang-k'u-li-ho,Shang-k’u-li-ho,Shangkuli,Shangkuli Xiang,Shankuli,Verkhniy Kul',Verkhniy Kul’,Verkhniye-Kuli,shang ku li,shang ku li xiang,Шанкули,上库力,上库力乡",50.25649,120.46231,"P","PPLA4"
2035022,"Shanghulin","Shanghulin","Shanghulin,Shanlulin',shang hu lin,Шанлулинь,上护林",50.67591,120.25409,"P","PPL"
2035030,"Shangdu Xian","Shangdu Xian","Shang-tu Hsien,Shangdu,Shangdu Xian,shang dou,shang dou xian,商都,商都县",41.61874,113.56543,"A","ADM3"
2035031,"Shangduhe","Shangduhe","Shan-tan-ho,Shang-tu-ho,Shangduhe",42.32972,116.42444,"P","PPL"
2035032,"Qitai","Qitai","Ch'i-t'ai,Ch’i-t’ai,Qitai,Qitai Zhen,Shandu,Shang Tou,Shang-tu,Shang-tu-ch'eng-kuan,Shang-tu-ch’eng-kuan,Shang-tu-hsien,Shang-tu-hsien-ch'eng,Shang-tu-hsien-ch’eng,Shangdu,Shangdu Xian,qi tai,qi tai zhen,shang dou,shang dou xian,七台,七台镇,商都,商都县",41.54944,113.53389,"P","PPLA3"
2035039,"Shandian He","Shandian He","Shan-tien Ho,Shanda Gol,Shandian He,Shandu Gol,Shang-tu Ho",42.22861,116.63444,"H","STM"
2035064,"Shaheqiao","Shaheqiao","",43.46667,121.35,"P","PPL"
2035074,"Serhen","Serhen","",45.88333,122.21667,"P","PPL"
2035077,"Saqin Sum","Saqin Sum","Sa-ch'i-miao,Sa-ch’i-miao,Saqin Sum",42.1,111.05,"P","PPL"
2035078,"Sanzuodian","Sanzuodian","San-tso-tien,Sanzuodian",41.61667,118.86667,"P","PPL"
2035083,"Sanyingtu","Sanyingtu","",41.68333,113.7,"P","PPL"
2035085,"Sanyanjing","Sanyanjing","San-yen-ching,Sanyanjing",42.15417,118.94889,"P","PPL"
2035101,"Sansumu","Sansumu","",40.59889,112.64056,"P","PPL"
2035117,"Sanliang","Sanliang","San-liang-ts'un,San-liang-ts’un,Sanliang",40.58639,111.37861,"P","PPL"
2035124,"Sanjiazi","Sanjiazi","San'tszyatszy,San-chia-tzu,Sanjiazi,San’tszyatszy",42.7625,121.93278,"P","PPL"
2035139,"Sanhe","Sanhe","Argun',Argun’,Nai-chia-mu-t'u,Nai-chia-mu-t’u,Nai-ju-mu-t'u,Nai-ju-mu-t’u,Nai-le-mu-t'u,Nai-le-mu-t’u,Nai-lo-mu-t'u,Nai-lo-mu-t’u,O-erh-ku-na-ch'i,O-erh-ku-na-ch’i,San'kheh,San-ho,Sanhe,Sanhe Zhen,Tung-o-ch'i,Tung-o-ch’i,san he,san he zhen,Саньхэ,三河,三河镇",50.44909,120.10532,"P","PPLA4"
2035143,"Sanhaodian","Sanhaodian","",49.03333,123.3,"P","PPL"
2035152,"Sanggin Dalai","Sanggin Dalai","Sang-ken-ta-lai,Sanggin Dalai",42.71778,116.0375,"P","PPL"
2035154,"Sangejing","Sangejing","San-ko-ching,Sangejing",40.13917,105.4225,"P","PPL"
2035157,"Sandu","Sandu","",42.8,122.98333,"P","PPL"
2035161,"Sandaoqiao","Sandaoqiao","Hang-chin-hou-ch'i,Hang-chin-hou-ch’i,Mi-ts'ang,Mi-ts'ang-hsien,Mi-ts’ang,Mi-ts’ang-hsien,San-tao-ch'iao,San-tao-ch’iao,Sandaoqiao",40.84833,106.91417,"P","PPL"
2035175,"Sandaogou","Sandaogou","",42.07528,116.62528,"P","PPL"
2035184,"Sanchakou","Sanchakou","",41.01667,112.91667,"P","PPL"
2035194,"Samarz","Samarz","Sa-mu-erh-chi,Samarz",44.71667,115.16667,"P","PPL"
2035195,"Salbar","Salbar","Sa-li-pa,Salbar",42.45333,119.73333,"P","PPL"
2035196,"Salaqi","Salaqi","Sa-hsien,Sa-la-ch'i,Sa-la-ch'i-hsien,Sa-la-ch’i,Sa-la-ch’i-hsien,Salaqi,Salatsi,Salqin,Saratsi,Saratsi-ting,T'u-mo-t'e-yu-ch'i,Tumd Youqi,Tumoteyou Qi,T’u-mo-t’e-yu-ch’i,sa la qi,tu mo te you qi,土默特右旗,萨拉齐",40.54139,110.51083,"P","PPLA3"
2035197,"Sain Hudag","Sain Hudag","",42.9,116.4,"P","PPL"
2035199,"Saihan Torai","Saihan Torai","Sai-han-t'ao-lai,Sai-han-t’ao-lai,Saihan Torai,Saihan Toroi,Saykhan-Talay",41.87083,100.57361,"P","PPL"
2035200,"Saihan Tal","Saihan Tal","Saihan Tal",48.33333,116.2,"P","PPL"
2035202,"Saihan Tal","Saihan Tal","Sai-han-t'a-la,Sai-han-t’a-la,Saihan Tal,Saihantala,Saihantala Zhen,Sonid Youqi,Su-ni-t'e-yu-ch'i,Su-ni-t’e-yu-ch’i,Suniteyou Qi,sai han ta la,sai han ta la zhen,su ni te you qi,苏尼特右旗,赛汉塔拉,赛汉塔拉镇",42.73583,112.65139,"P","PPLA3"
2035203,"Togot Sum","Togot Sum","Saihan Olji,Togot Sum",42.78056,113.78722,"P","PPL"
2035204,"Saihan Nur","Saihan Nur","",42.2,100.83333,"P","PPL"
2035205,"Saihan Gobi","Saihan Gobi","",42.76667,112.8,"P","PPL"
2035209,"Ruo Shui","Ruo Shui","Edsin,Edzen Gol,Edzin-gol,Ejine,Etsin Gol,Hwei,Hwei Ho,I-ching Ho,I-ching-kuo-erh Ho,Ikhe-gol,Jo shui,Ruo Shui",41.00306,100.27389,"H","STM"
2035214,"Reshuitang","Reshuitang","Je-shui-t'ang,Je-shui-t’ang,Reshuitang",43.48333,117.73333,"P","PPL"
2035215,"Reshuitang","Reshuitang","",41.43333,118.7,"P","PPL"
2035216,"Reshui","Reshui","Je-shui,Jo-shui,Reshui",42.14167,119.28,"P","PPL"
2035228,"Qulut","Qulut","",43.15,121.83333,"P","PPL"
2035229,"Qulut","Qulut","Ch'u-lu-t'u,Ch’u-lu-t’u,Qulut",42.83333,112.6,"P","PPL"
2035241,"Qongj","Qongj","Ch'uan-ching,Chu-chi-t'u,Chu-chi-t’u,Chunjito,Ch’uan-ching,Qongj,Qonj",41.88028,108.22583,"P","PPL"
2035242,"Qog Ul","Qog Ul","Ch'ao-k'o-wu-la,Ch’ao-k’o-wu-la,Qog Ul",44.8,116.4,"P","PPL"
2035245,"Qiyahe","Qiyahe","Ch'i-ch'ien-ku-chih,Ch'i-ya,Ch'i-ya-ch'ia,Ch'i-ya-ho,Ch’i-ch’ien-ku-chih,Ch’i-ya,Ch’i-ya-ch’ia,Ch’i-ya-ho,Qiyahe,qi ya he,奇雅河",53.01881,120.4781,"P","PPL"
2035252,"Qixieyingzi","Qixieyingzi","",42.03333,120.11667,"P","PPL"
2035253,"Qixiaying","Qixiaying","Ch'i-hsia,Ch'i-hsia-ying,Ch'i-hsia-ying-tzu,Ch’i-hsia,Ch’i-hsia-ying,Ch’i-hsia-ying-tzu,Qixiaying,Tsihsiayin",40.97278,112.15111,"P","PPL"
2035262,"Qiqi Shan","Qiqi Shan","",48.58333,122.55,"T","MT"
2035263,"Qiqiling","Qiqiling","Qiqiling,qi qi ling,齐奇岭",50.53449,123.87542,"P","PPL"
2035266,"Qiqian","Qiqian","Ch'i-ch'ien,Ch'i-ch'ien-hsien,Ch'i-kan,Chechinchan,Chghuergankhe,Chi-ju-mu-t'u,Chi-ju-mu-t’u,Chi-lo-mu-t'u,Chi-lo-mu-t’u,Chikanhsien,Chikeen,Chikien,Chu-erh-kan,Chu-erh-kan-ho,Chzhurgan,Ch’i-ch’ien,Ch’i-ch’ien-hsien,Ch’i-kan,Hsi-o-ch'i,Hsi-o-ch’i,Ki-kien,Kilemotu,Qiqian,Qiqian Xiang,Tsigan,Tszilemutu,qi gan,qi gan xiang,奇乾,奇乾乡",52.18427,120.76316,"P","PPLA4"
2035301,"Qinglongshan","Qinglongshan","",42.38333,121.06667,"P","PPL"
2035307,"Qinghezi","Qinghezi","Ch'ing-ho-tzu,Ch’ing-ho-tzu,Qinghezi",43.7,120.45,"P","PPL"
2035315,"Qinghe","Qinghe","",44.03333,121.2,"P","PPL"
2035316,"Qinghe","Qinghe","",43.7,121.98333,"P","PPL"
2035317,"Qinghe","Qinghe","",43.5,121.21667,"P","PPL"
2035322,"Qinggis Han","Qinggis Han","Ch'ang-ch'i-ssu-hau,Ch'eng-chi-ssu-han,Chengjisihan,Chengjisihan Zhen,Chiang-ch'i-ssu-hsu,Chiang-ch’i-ssu-hsu,Chingghis-Khan,Ch’ang-ch’i-ssu-hau,Ch’eng-chi-ssu-han,Hsin-chan,Qinggis Han,cheng ji si han,cheng ji si han zhen,成吉思汗,成吉思汗镇",47.75,122.83333,"P","PPLA4"
2035323,"Qinggelt","Qinggelt","Ch'ing-ko-le,Ch’ing-ko-le,Qinggel,Qinggelt",40.21306,105.81278,"P","PPL"
2035342,"Qilibin","Qilibin","Qilibin,qi li bin,奇力滨",50.91667,122.91667,"P","PPL"
2035348,"Qika","Qika","",50.7,119.5,"P","PPL"
2035359,"Qihregt","Qihregt","Ch'i-ha-erh-ko-t'u,Ch'i-ha-jih-ko-t'u,Ch’i-ha-erh-ko-t’u,Ch’i-ha-jih-ko-t’u,Qihreg,Qihregt",43.22306,112.34611,"P","PPL"
2035361,"Qihao","Qihao","Qihao,Qihao Xiang,Qihaocun",42.165,114.56306,"P","PPL"
2035370,"Qiaotou","Qiaotou","Ch'iao-t'ou,Ch’iao-t’ou,Qiaotou",43.16667,117.9,"P","PPL"
2035371,"Qiaotou","Qiaotou","Ch'iao-t'ou,Ch’iao-t’ou,Qiaotou",42.60333,118.90694,"P","PPL"
2035389,"Qianjingou","Qianjingou","",41.89444,115.59389,"P","PPL"
2035391,"Qianjin","Qianjin","",44.93333,121.08333,"P","PPL"
2035396,"Qianjiadian","Qianjiadian","Ch'ien-chia-tien,Ch’ien-chia-tien,Qianjiadian",43.7175,122.51417,"P","PPL"
2035405,"Qianfangzi","Qianfangzi","Ch'ien-fang-tzu,Ch’ien-fang-tzu,Qianfangzi",40.01667,111.38333,"P","PPL"
2035406,"Qianda Labin","Qianda Labin","Ch'en-ta-la-pin,Ch’en-ta-la-pin,Qianda Labin,qian da la bin,前达拉滨",49.62488,124.86018,"P","PPL"
2035413,"Qelin Ul","Qelin Ul","Cha-lan-wu-la,Qelin Ul",44.75,113.98333,"P","PPL"
2035414,"Qeh","Qeh","Qeh,Ts'e-k'o,Tseke,Tsekha,Ts’e-k’o",42.32111,101.10444,"P","PPL"
2035415,"Qeh","Qeh","Qeh",42.3,101.06667,"P","PPL"
2035416,"Qasq","Qasq","Ch'a-su-ch'i,Ch’a-su-ch’i,Qasq,T'u-mo-t'e-tso-ch'i,Tu-mo-t'e-ch'i,Tu-mo-t’e-ch’i,Tumd Zuoqi,Tumoteyou Qi,T’u-mo-t’e-tso-ch’i,cha su qi,tu mo te you qi,土默特右旗,察素齐",40.71222,111.12889,"P","PPLA3"
2035417,"Qarsan","Qarsan","Ch'a-erh-sen,Ch’a-erh-sen,Qarsan,Su-o-kung-yeh-fu",46.3,121.93333,"P","PPL"
2035418,"Qangt Sum","Qangt Sum","Ch'ang-t'u-miao,Ch'ang-t'u-so-mu,Ch’ang-t’u-miao,Ch’ang-t’u-so-mu,Qagan Nur,Qangdin Sum,Qangt Sum",43.53861,115.0875,"P","PPL"
2035419,"Qangdin Gol","Qangdin Gol","Ch'ang-tu-yin-kuo-le,Ch’ang-tu-yin-kuo-le,Qangdin Gol",43.46667,115,"H","STM"
2035420,"Qaidam","Qaidam","",40.2,110.96667,"P","PPL"
2035421,"Qahar Youyi Zhongqi","Qahar Youyi Zhongqi","Ch'a-ha-erh-yu-chung Ch'i,Ch'a-ha-erh-yu-i-chung Ch'i,Chaha'er,Chaha'er Youyi Zhongqi,Chahar Right Wing Central Banner,Chahar West Wing Center Banner,Chaha’er,Chaha’er Youyi Zhongqi,Ch’a-ha-erh-yu-chung Ch’i,Ch’a-ha-erh-yu-i-chung Ch’i,Qahar,Qahar Youyi Zhongqi,cha ha er,cha ha er you yi zhong qi,察哈尔,察哈尔右翼中旗",41.31012,112.55741,"A","ADM3"
2035422,"Qahar Youyi Qianqi","Qahar Youyi Qianqi","Ch'a-ha-erh-yu-ch'ien Ch'i,Ch'a-ha-erh-yu-i-ch'ien Ch'i,Chaha'er,Chaha'er Youyi Qianqi,Chahar Right Wing Front Banner,Chahar West Wing South Banner,Chaha’er,Chaha’er Youyi Qianqi,Ch’a-ha-erh-yu-ch’ien Ch’i,Ch’a-ha-erh-yu-i-ch’ien Ch’i,Qahar,Qahar Youyi Qianqi,cha ha er,cha ha er you yi qian qi,察哈尔,察哈尔右翼前旗",40.86165,113.17521,"A","ADM3"
2035423,"Qahar Youyi Houqi","Qahar Youyi Houqi","Ch'a-ha-erh-yu-hou Ch'i,Ch'a-ha-erh-yu-i-hou Ch'i,Chaha'er,Chaha'er Youyi Houqi,Chahar Right Wing Rear Banner,Chahar West Wing North Banner,Chaha’er,Chaha’er Youyi Houqi,Ch’a-ha-erh-yu-hou Ch’i,Ch’a-ha-erh-yu-i-hou Ch’i,Qahar,Qahar Youyi Houqi,cha ha er,cha ha er you yi hou qi,ᠴᠠᠬᠠᠷ ᠪᠠᠷᠠᠭᠤᠨ ᠭᠠᠷᠤᠨ ᠬᠣᠢᠲᠤ ᠬᠣᠰᠢᠭᠤ,察哈尔,察哈尔右翼后旗",41.528,113.10245,"A","ADM3"
2035424,"Qagan Us","Qagan Us","Ch'a-kan-wu-su,Ch’a-kan-wu-su,Qagan Us",43.78333,118.96667,"P","PPL"
2035425,"Qagan Us","Qagan Us","Altan Gadas Sum,Cha-kan-wu-su,Qagan Us",42.69972,114.74917,"P","PPL"
2035426,"Qagan Teg","Qagan Teg","Ch'a-kan-ching,Ch'a-kan-t'e-ko,Ch’a-kan-ching,Ch’a-kan-t’e-ko,Qagan Teg",43.35,112.26667,"P","PPL"
2035427,"Qagan Qulut","Qagan Qulut","Ch'a-kan-ch'ao-lu-t'e,Ch’a-kan-ch’ao-lu-t’e,Qagan Qulut",46.16667,118.3,"P","PPL"
2035428,"Qagan Obo","Qagan Obo","Chagan Aobao,Chagan Aobao Sumu,Qagan Obo,cha gan ao bao,cha gan ao bao su mu,查干敖包,查干敖包苏木",44.2484,111.73947,"P","PPLA4"
2035429,"Qagan Obo","Qagan Obo","",41.93361,110.75722,"P","PPL"
2035430,"Qagan Nur","Qagan Nur","",45.53333,118.3,"P","PPL"
2035431,"Qagan Nur","Qagan Nur","Ch'a-kan-no-erh,Ch’a-kan-no-erh,Qagan Nur",43.31667,112.95,"P","PPL"
2035432,"Qagan Nur","Qagan Nur","",43.29806,114.23639,"P","PPL"
2035433,"Qagan Nur","Qagan Nur","Ha-na-ha-la-su-mu,Qagan Nur,Zhengxianbai Qi,cha gan nao er,zheng xiang bai qi,查干淖尔,正镶白旗",42.30167,114.99528,"P","PPL"
2035434,"Ming’antu","Ming'antu","Ch'a-han-nao,Ch'a-han-nao-erh,Chagannao'er,Chagannao’er,Cheng-hsiang-pai-ch'i,Cheng-hsiang-pai-ch’i,Ch’a-han-nao,Ch’a-han-nao-erh,Ho-shih-miao,Ming'antu,Ming'antu Zhen,Ming’antu,Ming’antu Zhen,Qagan Nur,Zhengxiangbai Qi,cha gan nao er,he shuo miao,ming an tu,ming an tu zhen,zheng xiang bai qi,和硕庙,明安图,明安图镇,查干淖尔,正镶白旗",42.30278,114.99333,"P","PPLA3"
2035436,"Qagan Nur","Qagan Nur","A-erh-ch'a-han-no-erh,A-erh-ch'a-kan Po,A-erh-ch’a-han-no-erh,A-erh-ch’a-kan Po,Ar-tsagan Nor,Arshaan Nuur,Artsakan Nur,Aru-tsagan Noru,Ch'a-kan-no-erh,Ch’a-kan-no-erh,K'u-erh-ch'a-han Po,K'u-erh-ch'a-han-no-erh,K'u-erh-ch'a-kan-no-erh,K'u-lo-ch'a-kan-no-erh,Kureshawanor,K’u-erh-ch’a-han Po,K’u-erh-ch’a-han-no-erh,K’u-erh-ch’a-kan-no-erh,K’u-lo-ch’a-kan-no-erh,Lake Archagan Nur,Ozero Khurtsagan-Nur,Painner,Qagan Nur",43.39667,114.87167,"H","LK"
2035438,"Qagan Moron He","Qagan Moron He","Ch'a-han-mu-lun Ho,Ch'a-kan-mu-lun Ho,Chagan muru,Chagan mūru,Chakan muru,Chakan mūru,Ch’a-han-mu-lun Ho,Ch’a-kan-mu-lun Ho,Pai Ho,Qagan Moron He",43.25,119.03333,"H","STM"
2035440,"Qagan Ders","Qagan Ders","Ch'a-kan-te-le-ssu,Cha-kan-te-jih-ssu,Ch’a-kan-te-le-ssu,Qagan Ders",41.56278,106.48694,"P","PPL"
2035441,"Qagan Ders","Qagan Ders","Ch'a-kan-te-jih-ssu,Ch’a-kan-te-jih-ssu,Qagan Ders",40.28972,105.94417,"P","PPL"
2035442,"Qagan","Qagan","Cagan,Ch'a-kang,Ch’a-kang,Qagan,Цаган",49.25,118.11667,"P","PPL"
2035443,"Qabagt","Qabagt","",44.2,120.9,"P","PPL"
2035453,"Pingzhuang","Pingzhuang","P'ing-chuang,Pingzhuang,Pingzhuang Zhen,P’ing-chuang,Yuanbaoshan Qu,ping zhuang,ping zhuang zhen,yuan bao shan qu,元宝山区,平庄,平庄镇",42.03722,119.28889,"P","PPLA3"
2035486,"Ping’an","Ping'an","Hsing-an-t'un,Hsing-an-t’un,Ping'an,Ping’an",51.49667,120.10806,"P","PPL"
2035490,"Ping’an","Ping'an","",43.16667,123.61667,"P","PPL"
2035491,"Ping’an","Ping'an","",42.58361,121.24444,"P","PPL"
2035502,"Paoziyan","Paoziyan","",42.03583,116.35694,"P","PPL"
2035505,"Paotaiyingzi","Paotaiyingzi","P'ao-t'ai-ying-tzu,Paotaiyingzi,P’ao-t’ai-ying-tzu",41.7,115.165,"P","PPL"
2035523,"Pandaogou","Pandaogou","P'an-tao-kou,Pandaogou,P’an-tao-kou",40.5,113.86667,"P","PPL"
2035526,"Ouli","Ouli","A-t'o-ou-lieh,A-t’o-ou-lieh,Ou-lieh,Ouli",43.59556,123.22389,"P","PPL"
2035527,"Ouken He","Ouken He","",49.8,125.21667,"H","STM"
2035529,"Orshun Gol","Orshun Gol","A-erh-shun Ho,A-erh-shun-kuo-lo Ho,Arshan Gol,Arshun River,Hu-lun Ho,Hulun,Niao-erh-hsun Ho,Niao-erh-hsün Ho,Orshun Gol,Orshuun Gol,Orxon Gol,Reka Arshun'- Gol,Reka Arshun’- Gol,Reka Orchun,Urshin-gol,Wu-erh-hsun Ho,Wu-erh-hsün Ho,Wu-erh-shun Ho",48.98333,117.63333,"H","STM"
2035530,"Orqohan","Orqohan","Orqohan,Wu-erh-ch'i-han,Wu-erh-ch’i-han",49.53333,121.38333,"P","PPL"
2035531,"Oroqen Zizhiqi","Oroqen Zizhiqi","Elunchun,Elunchun Zizhiqi,O-lun-ch'un Autonomous Ch'i,O-lun-ch'un Tzu-chih-ch'i,O-lun-ch'un-tsu Tzu-chih-ch'i,O-lun-ch’un Autonomous Ch’i,O-lun-ch’un Tzu-chih-ch’i,O-lun-ch’un-tsu Tzu-chih-ch’i,Olunchun Autonomous Banner,Orochon Autonomous Banner,Orochon Banner,Oronchon Autonomous Banner,Oroqen,Oroqen Zizhiqi,e lun chun,e lun chun zi zhi qi,鄂伦春,鄂伦春自治旗",50.61483,123.59217,"A","ADM3"
2035533,"Orgon Tal Sum","Orgon Tal Sum","Orgon Tal,Orgon Tal Sum,Wu-jih-ken-t'a-la,Wu-jih-ken-t’a-la",43.30639,112.75972,"P","PPL"
2035534,"Orbog","Orbog","",44.2,123,"P","PPL"
2035535,"Onor","Onor","Onor,Unur,Wu-no-erh,Wu-nu-erh,Wunor,Wunuer,Унур",48.86667,121.21667,"P","PPL"
2035536,"Ongt Gol","Ongt Gol","Guaizihu,Ongt Gol",41.41667,102.06667,"P","PPL"
2035537,"Ongniud Qi","Ongniud Qi","Ongniod Banner,Ongniud,Ongniud Qi,Weng-niu-t'e Ch'i,Weng-niu-t’e Ch’i,Wengniu Teqi,Wengniute Qi,weng niu te,weng niu te qi,翁牛特,翁牛特旗",42.93835,119.03151,"A","ADM3"
2035538,"Onggon Ul Sum","Onggon Ul Sum","Onggon Ul,Onggon Ul Sum,Po-erh-pei,Weng-ken-wu-la",42.53833,114.06361,"P","PPL"
2035539,"Onggon Tegin Sum","Onggon Tegin Sum","",42.23333,109.38333,"P","PPL"
2035540,"Onggon","Onggon","",41.5,108.15,"P","PPL"
2035541,"Ondor Sum","Ondor Sum","Barun Sunitvan Headquarters,Barun Sunitvan Residence,Hsi-su-ni-t'e-wang-fu,Hsi-su-ni-t'e-yu-i-ch'i,Hsi-su-ni-t’e-wang-fu,Hsi-su-ni-t’e-yu-i-ch’i,Knyazya Barun Sunitvan Residence,Ondor Sum,Sisunitevanfu,Su-ni-t'e-yu-ch'i,Su-ni-t'e-yu-i-ch'i,Su-ni-t'e-yu-i-wang-fu,Su-ni-t’e-yu-ch’i,Su-ni-t’e-yu-i-ch’i,Su-ni-t’e-yu-i-wang-fu,Susunitehwangfu,Te Wang-fu,Wen-tu-erh-miao,West Sunid Banner,West Sunit",42.44306,112.91944,"P","PPL"
2035542,"Ondor Mod","Ondor Mod","Ondor Mod,Wen-tu-erh-mao-tao",40.98333,104.41667,"P","PPL"
2035543,"Ondor Had","Ondor Had","Ondor Had,Wen-tu-erh-ha-ta",44.96667,120.45,"P","PPL"
2035544,"Suhai Hudag","Suhai Hudag","Olon Bulag,Suhai Hudag,Suhain Hudag",40.48222,106.28917,"P","PPL"
2035545,"Oljit","Oljit","",41.9,107.55,"P","PPL"
2035546,"Olji Moron He","Olji Moron He","Heberu Gol,Olji Moron He,Wu-erh-chi-mu-lun,Wuliyimulu",44.26667,121.8,"H","STMX"
2035547,"Olji Moron","Olji Moron","",44,120.86667,"P","PPL"
2035548,"Obor Jalag","Obor Jalag","Obor Jalag,Wu-pu-lin-chia-la-ka",46.33333,120.75,"P","PPL"
2035550,"Nuomin Dashan","Nuomin Dashan","No-min-ta Shan,Nuomin Dashan",50.3,122.73333,"T","MT"
2035551,"Nungnain Sum","Nungnain Sum","No-na-i-miao,Nung Hai Miao,Nung-nai-miao,Nungnain Sum",45.68333,118.93333,"P","PPL"
2035556,"Nudam","Nudam","Ao-tu-mu,Nudam",44.91667,119.83333,"P","PPL"
2035577,"Niujiayingzi","Niujiayingzi","Niu-chia-ying-tzu,Niujiayingzi",42.14056,118.80417,"P","PPL"
2035579,"Niugutu","Niugutu","",42.41667,120.25,"P","PPL"
2035580,"Niu’erhe","Niu'erhe","",51.86667,120.55,"P","PPL"
2035581,"Niu’erhe","Niu'erhe","Niu'erhe,Niu'erhe Zhen,Niu-erh-ho,Niu’erhe,Niu’erhe Zhen,niu er he,niu er he zhen,牛耳河,牛耳河镇",51.5569,121.74572,"P","PPLA4"
2035582,"Niuchangliang","Niuchangliang","",40.20611,109.38194,"P","PPL"
2035583,"Nirji","Nirji","Busi,Hsi-pu-t'e-ha,Hsi-pu-t’e-ha,I-pu-ch'i,I-pu-ch’i,Irutsi,Mo-li-ta-wa-ch'i,Mo-li-ta-wa-ch’i,Mo-li-ta-wa-ta-wo-erh-tsu-tzu-chih-ch'i,Mo-li-ta-wa-ta-wo-erh-tsu-tzu-chih-ch’i,Molidawa Dawo'erzu Zizhiqi,Molidawa Dawo’erzu Zizhiqi,Morin Dawa,Morin Dawa Daurzu Zizhiqi,Ni'erji,Ni'erji Zhen,Ni-erh-chi,Nirji,Ni’erji,Ni’erji Zhen,Pu-hsi,Pu-hsi-hsien,Pushi,Ta-kan-erh-tsu-tzu-chih-ch'i,Ta-kan-erh-tsu-tzu-chih-ch’i,mo li da wa da wo er zu zi zhi qi,ni er ji,ni er ji zhen,尼尔基,尼尔基镇,莫力达瓦达斡尔族自治旗",48.48333,124.48333,"P","PPLA3"
2035586,"Ningcheng Xian","Ningcheng Xian","Ning-ch'eng Hsien,Ning-ch’eng Hsien,Ningcheng,Ningcheng Xian,ning cheng,ning cheng xian,宁城,宁城县",41.58912,119.12689,"A","ADM3"
2035607,"Inner Mongolia Autonomous Region","Inner Mongolia Autonomous Region","Binnen-Mongolie,Binnen-Mongolië,Indre Mongolia,Inner Mongolia,Inner Mongolia Autonomous Region,Inner Mongolian Autonomous Ch'u,Inner Mongolian Autonomous Ch’ü,Inner Mongolian Autonomous Region,Nei Menggu Zizhiqu,Nei Monggol Zizhiqu,Nei Mongol,Nei Mongol Zizhiqu,Nei-meng-ku Tzu-chih-ch'u,Nei-meng-ku Tzu-chih-ch’u,Region autonome de Mongolie-Interieure,Région autonome de Mongolie-Intérieure,nei meng gu,nei meng gu zi zhi qu,内蒙古,内蒙古自治区",43.5,114.75,"A","ADM1"
2035608,"Nei Mongol Gaoyuan","Nei Mongol Gaoyuan","Inner Mongolia Plateau,Nei Mongol Gaoyuan,Nei-meng-ku Kao-yuan,Pei-pu Kao-yuan,Pei-pu Kao-yüan",41,104,"T","PLAT"
2035611,"Nart","Nart","Cheng-lan-ch'i-ya-men,Cheng-lan-ch’i-ya-men,Na-jih-t'u,Na-jih-t’u,Nart",42.88556,115.81444,"P","PPL"
2035612,"Narin Gol","Narin Gol","",42.6225,121.86972,"P","PPL"
2035614,"Naran Bulag","Naran Bulag","Naran Bulag,Naren Baolage,Naren Baolage Sumu,na ren bao la ge,na ren bao la ge su mu,那仁宝拉格,那仁宝拉格苏木",44.63333,114.11667,"P","PPLA4"
2035615,"Naran Bulag","Naran Bulag","Na-jen-pao-li-ko,Naran Bulag",44.48333,114.3,"P","PPL"
2035616,"Naran Bulag","Naran Bulag","",41.36667,106.4,"P","PPL"
2035627,"Nanwengkouzi","Nanwengkouzi","",51.2,125.33333,"P","PPL"
2035628,"Nanweng He","Nanweng He","Na-wen Ho,Nan-weng Ho,Nanweng He",51.16417,125.86667,"H","STM"
2035629,"Nanwan Erdaoying","Nanwan Erdaoying","Nanwan,Nanwan Erdaoying,nan wan,nan wan er dao ying,南湾,南湾二道营",40.62583,114.0125,"P","PPL"
2035677,"Naji","Naji","A-jung-ch'i,A-jung-ch’i,Aron,Arong Qi,Arun Qi,Na-chi,Na-chi-t'un,Na-chi-t’un,Naji,Naji Zhen,Najitun,a rong qi,na ji,na ji qi,那吉,那吉旗,阿荣旗",48.12217,123.45904,"P","PPLA3"
2035682,"Naiman Qi","Naiman Qi","Nai-man Ch'i,Nai-man Ch’i,Naiman,Naiman Banner,Naiman Qi,nai man,nai man qi,奈曼,奈曼旗",42.95939,120.83946,"A","ADM3"
2035683,"Nailin","Nailin","",41.9,119.3,"P","PPL"
2035684,"Naduli He","Naduli He","La-tu-li Ho,Labulikhe,Ladulikhe,Na-tu-li Ho,Naduli He,Nadulikhe,na dou li he,那都里河",50.13333,125.28333,"H","STM"
2035688,"Muyuan","Muyuan","Mujuan',Muyuan,Muyuan Zhen,mu yuan,mu yuan zhen,Муюань,牧原,牧原镇",49.40089,121.12427,"P","PPLA4"
2035690,"Mutougou","Mutougou","Mu-t'ou-kou,Mu-t’ou-kou,Mutougou",42.45639,118.86389,"P","PPL"
2035695,"Muruin Sum Shuiku","Muruin Sum Shuiku","Mo-li-miao Shui-k'u,Mo-li-miao Shui-k’u,Muruin Sum Shuiku",43.51667,121.8,"H","RSV"
2035696,"Muruin Sum","Muruin Sum","Mo-li-miao,Mo-lin,Molun,Morin Sumu,Morin Sūmu,Morin-sume,Muruin Sum",43.58333,121.83333,"P","PPL"
2035707,"Mujiayingzi","Mujiayingzi","",42.11667,118.78333,"P","PPL"
2035719,"Morin Dawa Daurzu Zizhiqi","Morin Dawa Daurzu Zizhiqi","Mo-li-ta-wa-ta-kan-erh Nationality Autonomous Ch'i,Mo-li-ta-wa-ta-kan-erh Nationality Autonomous Ch’i,Mo-li-ta-wa-ta-kuan-erh-tsu Tzu-chih-ch'i,Mo-li-ta-wa-ta-kuan-erh-tsu Tzu-chih-ch’i,Mo-li-ta-wa-ta-wo-erh-tsu Tzu-chih-ch'i,Mo-li-ta-wa-ta-wo-erh-tsu Tzu-chih-ch’i,Molidawa Dawo'er,Molidawa Dawo'erzu Zizhiqi,Molidawa Dawo’er,Molidawa Dawo’erzu Zizhiqi,Molitawa Tahur Autonomous Banner,Morin Dawa Daurzu,Morin Dawa Daurzu Zizhiqi,Ta-hu-erh Tzu-chih-ch'i,Ta-hu-erh Tzu-chih-ch’i,Ta-kan-erh-tsu Tzu-chih-ch'i,Ta-kan-erh-tsu Tzu-chih-ch’i,Tahur Autonomous Banner,mo li da wa da wo er zu,mo li da wa da wo er zu zi zhi qi,莫力达瓦达斡尔族,莫力达瓦达斡尔族自治旗",48.73228,124.39088,"A","ADM3"
2035721,"Mo’er Daoga","Mo'er Daoga","Mo'er Daoga,Mo'er Daoga Zhen,Mo-erh-tao-a,Mo-erh-tao-ka,Mordaga,Moridaga,Moridaga Zhen,Mo’er Daoga,Mo’er Daoga Zhen,mo er dao ga,mo er dao ga zhen,Мордага,莫尔道嘎,莫尔道嘎镇",51.25901,120.77084,"P","PPLA4"
2035725,"Mongh Xil","Mongh Xil","Meng-k'o-hsi-li,Meng-k’o-hsi-li,Mongh Xil",49.76667,118.4,"P","PPL"
2035726,"Monggon Qulu","Monggon Qulu","Meng-ken-Ch'u-lu,Meng-ken-Ch’u-lu,Monggon Qulu",48.65,119.8,"P","PPL"
2035727,"Monggon Bulag Sum","Monggon Bulag Sum","Meng-ko-pu-lu-ko,Monggon Bulag,Monggon Bulag Sum",40.05056,103.70972,"P","PPL"
2035732,"Moguqi","Moguqi","Ma-ku-ch'i,Ma-ku-ch’i,Meng-ku-chi,Mo-ku-ch'i,Mo-ku-ch'i-tun,Mo-ku-ch’i,Mo-ku-ch’i-tun,Moguqi,Moguqi Zhen,Mokechzha,Myngutszi,mo gu qi,mo gu qi zhen,蘑菇气,蘑菇气镇",47.49475,122.37231,"P","PPLA4"
2035733,"Modot Hure","Modot Hure","Mo-tu-Ku-li,Modot Hure",40.5,106.41667,"P","PPL"
2035734,"Modon","Modon","Mao-teng,Modon",44.2,116.5,"P","PPL"
2035736,"Mod","Mod","",44.7,120.78333,"P","PPL"
2035737,"Mod","Mod","Mao-tu-ts'un,Mao-tu-ts’un,Mod",41.95528,113.65611,"P","PPL"
2035757,"Mingshuihe","Mingshuihe","Mingshuihe,Mingshuihe Zhen,ming shui he,ming shui he zhen,明水河,明水河镇",46.65826,120.70884,"P","PPLA4"
2035762,"Ming’an","Ming'an","",40.93167,109.65556,"P","PPL"
2035772,"Miao’ershan","Miao'ershan","",48.4,122.55,"P","PPL"
2035776,"Mianduhe","Mianduhe","Mianduhe,Mianduhe Zhen,Mien-tu-ho,Mien-tu-ko,Mjan'dukheh,Myandukhe,mian du he,mian du he zhen,Мяньдухэ,免渡河,免渡河镇",49.1,121.03333,"P","PPLA4"
2035777,"Mergel Gol","Mergel Gol","Hei-erh Ho,Hei-erh-ko-lo Ho,Maerhkenle,Mergel Gol,Mieh-erh-kuo-lo Ho,Mo-erh Ho,Mo-erh-ken-lo Ho,Mo-erh-ko-erh Ho,Mo-erh-ko-le Ho,Mo-erh-ko-lo Ho,Mo-erh-ku-lo Ho,Moerchel,Moergel,Reka Mergel",49.23333,119.3,"H","STM"
2035786,"Mengke He","Mengke He","Meng-k'o Ho,Meng-k’o Ho,Mengke He",42.86667,120.58333,"H","STM"
2035791,"Mend","Mend","Men-ta,Men-ta-ying-tzu,Mend",43.65,123.11667,"P","PPL"
2035793,"Melhit","Melhit","Melhit,Mu-li-t'u,Mu-li-t’u",43.46944,122.20889,"P","PPL"
2035798,"Meilihe","Meilihe","",42.12306,119.25389,"P","PPL"
2035802,"Meiguiying","Meiguiying","",41.03222,113.35639,"P","PPL"
2035803,"Maidar Zhao","Maidar Zhao","Ho-chia-hu-lun,Maidar Zhao,Mei-tai-chao,Mei-tai-t'iao,Mei-tai-t’iao,Meidaizhao",40.57639,110.74361,"P","PPL"
2035819,"Marain Sum","Marain Sum","Marain Sum,Mei-lin-miao",44.03333,120.86667,"P","PPL"
2035824,"Maoshandong","Maoshandong","Mao-shan-tung,Maoshandong",43.13333,118.4,"P","PPL"
2035828,"Maojiagedu","Maojiagedu","",40.86222,109.80889,"P","PPL"
2035835,"Manzhouli Shi","Manzhouli Shi","Man-chou-li Shih,Manzhouli,Manzhouli Shi,man zhou li,man zhou li shi,满洲里,满洲里市",49.47192,117.68293,"A","ADM3"
2035836,"Manzhouli","Manzhouli","Lu-pin-hsien,Lupin,Man-chou-li,Man-chou-li-shih,Man-chow-li,Manchuli,Manchuria,Manchuriya,Manchzhuriya,Mandschurei,Manzhouli,NZH,man zhou li,man zhou li shi,man'chzhurija,manjeouli,manzhuur,Манжуур,Маньчжурия,満州里,満州里市,满洲里市,만저우리",49.6,117.43333,"P","PPL"
2035841,"Manin Qagan Tungge","Manin Qagan Tungge","Manin Qagan Tungge",40.58333,101.2,"P","PPL"
2035842,"Mangui","Mangui","Man'gui,Man-kuei,Mangui,Mangui Zhen,man gui,man gui zhen,Маньгуи,满归,满归镇",52.04136,122.06563,"P","PPLA4"
2035845,"Manghan","Manghan","",42.99889,121.39306,"P","PPL"
2035849,"Mandalt Sum","Mandalt Sum","Man-ta-la-t'u-miao,Man-ta-la-t’u-miao,Mandalt Sum",44.15,112.75,"P","PPL"
2035850,"Mandalt","Mandalt","Man-tu-la-t'u,Man-tu-la-t’u,Mandalt,Mandulatu,Mandulatu Zhen,Pei-le-miao,Pei-lo-miao,Sonid Zuoqi,Su-ni-t'e-tso-ch'i,Su-ni-t’e-tso-ch’i,Sunitezuo Qi,man dou la tu,man dou la tu zhen,su ni te zuo qi,满都拉图,满都拉图镇,苏尼特左旗",43.84028,113.71556,"P","PPLA3"
2035851,"Mandal","Mandal","Mandal,Mandal Sum",42.52222,110.11278,"P","PPL"
2035852,"Mandagin Hurel","Mandagin Hurel","",44.3,112.06667,"P","PPL"
2035853,"Mand","Mand","Man-tou,Mand",42.85,122.2,"P","PPL"
2035872,"Majiazi","Majiazi","",50.66667,124.55,"P","PPL"
2035877,"Maihutu","Maihutu","Mai-hu-t'a,Mai-hu-t’a,Maihutu,Mayhata,Maykhutu",40.62806,112.75389,"P","PPL"
2035889,"Machanghao","Machanghao","",40.04528,110.50333,"P","PPL"
2035895,"Lüyuan","Luyuan","",41.10694,100.27444,"P","PPL"
2035905,"Luotuoshan","Luotuoshan","",42.00111,115.72667,"P","PPL"
2035909,"Luotuobozi","Luotuobozi","Lo-t'o-po-tzu,Lo-t’o-po-tzu,Luotuobozi",47.18333,122.16667,"P","PPL"
2035925,"Luhin Sum","Luhin Sum","Lo-hei-su-mu,Lo-hsien-su-mu,Luhin Sum",46.61667,118.7,"P","PPL"
2035930,"Lubei","Lubei","Cha-lu-t'e-ch'i,Cha-lu-t’e-ch’i,Jarod,Jarud Qi,Lu-pei,Lu-pei-chieh,Lu-pei-hsien,Lubai,Lubei,Lubei Zhen,Lubey,Lupeh,Zhalute Qi,lu bei,lu bei zhen,zha lu te qi,扎鲁特旗,鲁北,鲁北镇",44.60866,120.9556,"P","PPLA3"
2035931,"Lubang Ju","Lubang Ju","Lo-pu-chao,Lubang Ju",40.21667,107.16667,"P","PPL"
2035938,"Louzidian","Louzidian","Lou-tzu-tien,Louzidian",42.00528,119.07528,"P","PPL"
2035953,"Longtou","Longtou","Longtou,long tou,龙头",49.64076,123.71525,"P","PPL"
2035957,"Longshengzhuang","Longshengzhuang","Longshengzhang,Longshengzhuang,Longshengzhuang Zhen",40.70028,113.43306,"P","PPL"
2035992,"Liuzhao","Liuzhao","Lin-chao-ko-tan,Liu-chao,Liuzhao",40.90861,108.04528,"P","PPL"
2035995,"Liuzhan","Liuzhan","Liu-chan,Liuzhan",50.2,125.41667,"P","PPL"
2036004,"Liushiqing","Liushiqing","",42.02889,114.335,"P","PPL"
2036011,"Liujiazi","Liujiazi","",42.75444,121.36361,"P","PPL"
2036022,"Liuhu","Liuhu","Liu-hu-ts'un,Liu-hu-ts’un,Liuhu",45.66667,121.4,"P","PPL"
2036061,"Linxi Xian","Linxi Xian","Lin-hsi Hsien,Linxi,Linxi Xian,lin xi,lin xi xian,林西,林西县",43.61683,118.04245,"A","ADM3"
2036062,"Linxi","Linxi","Lin-hsi,Lin-hsi-hsien,Linsi,Linxi,Linxi Zhen,xi lin,xi lin zhen,西林,西林镇",43.51667,118.03333,"P","PPLA3"
2036070,"Linhe Qu","Linhe Qu","Lin-ho Hsien,Linhe,Linhe Qu,Linhe Shi,Linhe Xian,lin he,lin he qu,临河,临河区",40.85393,107.42792,"A","ADM3"
2036071,"Linhe","Linhe","Ch'iang-yu-fang,Ch’iang-yu-fang,Lin-ho,Lin-ho-hsien,Linhe,Linkhe",40.75139,107.42056,"P","PPL"
2036080,"Lingjiaopaozi","Lingjiaopaozi","",42.85,120.18333,"P","PPL"
2036082,"Lindong","Lindong","Bairin Zuoqi,Balin'tszotsi,Balin’tszotsi,Chiu-hsiao-pa-lin-pei-tzu-fu,Chiu-pei-tzu-fu,Hsiao-pa-lin-pei-tzu-fu,Hsiaopalinpeitze,Huuchin,Lin-tung,Lin-tung-hsien,Lindong,Lindong Zhen,Pa-lin-tso-ch'i,Pa-lin-tso-ch’i,Pa-lin-tso-i-ch'i,Pa-lin-tso-i-ch’i,ba lin zuo qi,lin dong,lin dong zhen,巴林左旗,林东,林东镇",43.98333,119.18333,"P","PPLA3"
2036088,"Lijiayingzi","Lijiayingzi","",42.99583,119.90528,"P","PPL"
2036120,"Liaohe","Liaohe","",43.73333,122.3,"P","PPL"
2036165,"Liangdawa","Liangdawa","Liang-ta-wa,Liangdawa",40.65,113.61667,"P","PPL"
2036166,"Liangcheng Xian","Liangcheng Xian","Liang-ch'eng Hsien,Liang-ch’eng Hsien,Liangcheng,Liangcheng Xian,liang cheng,liang cheng xian,凉城,凉城县",40.52135,112.54406,"A","ADM3"
2036167,"Daihai","Daihai","Daihai,Daihai Zhen,Hsin-t'ang,Hsin-t'ang-chen,Hsin-t’ang,Hsin-t’ang-chen,Liangcheng,Liangcheng Xian,dai hai,dai hai zhen,liang cheng,liang cheng xian,凉城,凉城县,岱海,岱海镇",40.52111,112.49306,"P","PPLA3"
2036186,"Laoyanghao","Laoyanghao","",41.33333,109.8,"P","PPL"
2036187,"Laoximiao","Laoximiao","Hsi-miao,I-li-ssu-chi-ssu-mu-miao,Lao-hsi-miao,Laoximiao",41.58639,100.42389,"P","PPL"
2036193,"Laotou Shan","Laotou Shan","",45.9,120.9,"T","MT"
2036210,"Laoha He","Laoha He","Lao Ho,Lao-ha Ho,Laoha He,Laokhakhe",43.4,120.65,"H","STM"
2036216,"Laofu","Laofu","Hsi-lao-fu,Laofu,Xilaofu",42.18333,118.23333,"P","PPL"
2036236,"Langxinshan","Langxinshan","",41.01667,100.33333,"P","PPL"
2036240,"Langtoutun","Langtoutun","",46.83333,121.85,"P","PPL"
2036242,"Langshan","Langshan","Langshan,Yung-an-p'u,Yung-an-pao,Yung-an-p’u",41.03694,107.4425,"P","PPL"
2036244,"Lang Shan","Lang Shan","Khara Narin Ula,Khara Narin Ula Range,Khrebet Kara-Narin,Lang Shan,Lang Shan-mo",41.25,106.66667,"T","MTS"
2036246,"Langfeng","Langfeng","",48.06667,121.2,"P","PPL"
2036251,"Lamawan","Lamawan","Lamawan,Lamawan Zhen,la ma wan,la ma wan zhen,喇嘛湾,喇嘛湾镇",40.07694,111.38139,"P","PPLA4"
2036266,"E’erguna","E'erguna","E'erguna,E'erguna Shi,Ergun,Ergun Shi,Ergun Youqi,E’erguna,E’erguna Shi,La-pu-ta-jen,Lablarin,Labu Dalin,Labudalin',Na-pu-ta-lin,O-erh-ku-na-yu-ch'i,O-erh-ku-na-yu-ch’i,O-yu-ch'i,O-yu-ch’i,Rabudarin,e er gu na,e er gu na shi,e er gu na you qi,la bu da lin,Лабудалинь,拉布大林,拉布达林,额尔古纳,额尔古纳右旗,额尔古纳市",50.22362,120.17092,"P","PPLA3"
2036269,"Kuruqi","Kuruqi","Kuruqi,Kuruqi Xiang,ku ru qi,ku ru qi xiang,库如奇,库如奇乡",48.96294,123.82033,"P","PPLA4"
2036274,"Kulungou","Kulungou","",48.86667,122.63333,"P","PPL"
2036278,"Kuile He","Kuile He","K'uei-le Ho,Kuile He,K’uei-le Ho",49.51417,124.63556,"H","STM"
2036291,"Kouhezi","Kouhezi","",42.46333,121.25167,"P","PPL"
2036296,"Kongchunmiao Paozi","Kongchunmiao Paozi","K'ung-ch'un-miao P'ao-tzu,Kongchunmiao Paozi,K’ung-ch’un-miao P’ao-tzu",42.86667,120.58333,"H","LK"
2036299,"Keyihe","Keyihe","Keyihe,Keyihe Zhen,Ko-i-ho,ke yi he,ke yi he zhen,克一河,克一河镇",50.63883,122.4972,"P","PPLA4"
2036303,"Kerulen River","Kerulen River","Herelen,Herelen River,Hereleng,Hereleng Gol,Herlen Gol,Herlen He,Herlun He,Herulun,Herulun Gol,Herülün,K'o-lu-lun Ho,Kerelen,Kerulen River,Kerulua,Kerulun,Keruren gawa,Kherlen,Kherlen Gol,Kherulun-gol,K’o-lu-lun Ho,Lung-chu Ho,Lung-chü Ho,Reka Kerilyun",48.8,117,"H","STM"
2036308,"Kelidai","Kelidai","",42.15,120.28333,"P","PPL"
2036327,"Kangjiayingzi","Kangjiayingzi","K'ang-chia-ying-tzu,Kangjiayingzi,K’ang-chia-ying-tzu",42.77333,119.85361,"P","PPL"
2036334,"Kalaqi","Kalaqi","K'a-la-ch'i,Kalaci,Kalaqi,K’a-la-ch’i,Калаци",50.7,122.13333,"P","PPL"
2036340,"Kailu Xian","Kailu Xian","K'ai-lu Hsien,Kailu,Kailu Xian,K’ai-lu Hsien,kai lu,kai lu xian,开鲁,开鲁县",43.65878,121.27433,"A","ADM3"
2036341,"Kailu","Kailu","K'ai-lu-hsien,Kailu,Kailu Xian,Kailun,Kailun Zhen,K’ai-lu-hsien,kai lu,kai lu xian,kai lu zhen,开鲁,开鲁县,开鲁镇",43.58333,121.2,"P","PPLA3"
2036349,"Juyan","Juyan","",42.3,100.71667,"P","PPL"
2036350,"Jus Hua","Jus Hua","",45.56667,119.81667,"P","PPL"
2036352,"Jurh","Jurh","Chu-jih-ho,Jurh",44.68333,120.51667,"P","PPL"
2036353,"Jurh","Jurh","Jurh,Zhurihe,Zhurihe Zhen,zhu ri he,zhu ri he zhen,珠日河,珠日河镇",44.2,121.66667,"P","PPLA4"
2036354,"Jurhin","Jurhin","Chu-erh-ho,Chu-jih-ho,Jurh,Jurhin,Jurhin Zhen",42.40361,112.87056,"P","PPL"
2036362,"Jun Bulen","Jun Bulen","Chun-pu-li-miao,Hsin-miao,Jun Bulen",45.71667,118.03333,"P","PPL"
2036364,"Julqin","Julqin","Chu-erh-ch'in,Chu-erh-ch’in,Julqin",43.95,118.23333,"P","PPL"
2036367,"Julegtei","Julegtei","Chu-li-ko-t'ai,Chu-li-ko-t’ai,Julegtei",41.83333,108.78333,"P","PPL"
2036369,"Jujinchang","Jujinchang","Chu-chin-ch'ang,Chü-chin-ch’ang,Jujinchang",42.83333,117.61667,"P","PPL"
2036376,"Zhaosu He","Zhaosu He","Chao-su Ho,Cho-so Ho,Cho-su Ho,Jos He,Zhaosu He,zhao su he,昭苏河",42.33333,118.91667,"H","STM"
2036377,"Jogdor","Jogdor","Chao-ku-tu-erh,Jogdor",42.49333,116.89806,"P","PPL"
2036390,"Jiwen","Jiwen","Chi-wen,Jiwen,Jiwen Zhen,ji wen,ji wen zhen,吉文,吉文镇",50.57446,123.18594,"P","PPLA4"
2036407,"Jiufendi","Jiufendi","Chiu-fen-ti,Jiufendi",42.60611,119.74,"P","PPL"
2036420,"Jirin Gol","Jirin Gol","Chi-lin-kuo-le,Hao-erh-ch'in-miao,Hao-erh-ch’in-miao,Hsi-wu-chu-mu-ch'in-ch'i,Hsi-wu-chu-mu-ch’in-ch’i,Jiren Gaole,Jiren Gaole Zhen,Jirin Gol,Wang-fu-miao,Wang-kai-miao,ji ren gao lei,ji ren gao lei zhen,吉仁高勒,吉仁高勒镇",44.46667,117.06667,"P","PPLA4"
2036421,"Tongliao Shi","Tongliao Shi","Che-li-mu Meng,Chelimu League,Cherim League,Jerim League,Jirem Meng,Tongliao,Tongliao Shi,tong liao,tong liao shi,通辽,通辽市",43.58196,121.93534,"A","ADM2"
2036422,"Jiqinhe","Jiqinhe","Chi-ch'in-ho,Chi-ch’in-ho,Jiqinhe",47.96667,121.83333,"P","PPL"
2036443,"Jinshan","Jinshan","Chin-shan,Chin-shan-chen,Harqin Qi,Jinshan,Jinshan Zhen,K'a-la-ch'in-ch'i,K'o-la-ch'in-ch'i,Kalaqin Qi,K’a-la-ch’in-ch’i,K’o-la-ch’in-ch’i,jin shan,jin shan zhen,ka la qin qi,喀喇沁旗,锦山,锦山镇",41.91667,118.66667,"P","PPLA3"
2036450,"Jinlin","Jinlin","Chin-lin,Czin'lin',Jinlin,jin lin,Цзиньлинь,金林",51.14722,121.27778,"P","PPL"
2036454,"Jinjiataizi","Jinjiataizi","",40.8,107.6,"P","PPL"
2036457,"Jining Qu","Jining Qu","Chi-ning Shih,Jining,Jining Qu,Jining Shi,ji ning,ji ning qu,集宁,集宁区",41.03504,113.107,"A","ADM3"
2036458,"Jining","Jining","Chi-ning,Chi-ning-hsien,Chi-ning-shih,Czinin,Jining,Jining Qu,P'ing-ti-ch'uan,P'ing-ti-ch'uan-chen,P’ing-ti-ch’üan,P’ing-ti-ch’üan-chen,Tsining,Tszinin,ji ning,ji ning qu,ping de quan zhen,Цзинин,平地泉镇,集宁,集宁区",41.0275,113.10583,"P","PPL"
2036459,"Jinhe","Jinhe","Chin-ho,Jinhe,Jinhe Zhen,jin he,jin he zhen,金河,金河镇",51.33761,121.4893,"P","PPLA4"
2036472,"Jingpeng","Jingpeng","Ching-feng,Ching-p'en,Ching-p'eng,Ching-p'eng-hsien,Ching-p'eng-ying,Ching-p’en,Ching-p’eng,Ching-p’eng-hsien,Ching-p’eng-ying,Hexigten Qi,Jingfeng,Jingpeng,Jingpeng Zhen,K'o-shih-k'o-t'eng-ch'i,Keshiketeng Qi,Kingpeng,K’o-shih-k’o-t’eng-ch’i,Pai-t'a-ssu,Pai-t’a-ssu,jing peng,jing peng zhen,ke shen ke teng qi,克什克腾旗,经棚,经棚镇",43.25,117.51667,"P","PPLA3"
2036489,"Jinchanggouliang","Jinchanggouliang","",41.96667,120.28333,"P","PPL"
2036492,"Jinbaotun","Jinbaotun","Chin-pao-t'un,Chin-pao-t’un,Jinbaotun",43.36306,123.59972,"P","PPL"
2036498,"Jiliu He","Jiliu He","Bel-tzu,Bel-tẕu,Berutsu-ka,Besutora-ka,Bystraya,Chi-liu Ho,Jiliu He,Niu-erh Ho,Nyuerkhe,Pei-erh-l'zu Ho,Pei-erh-l’zu Ho",52.03333,120.68333,"H","STM"
2036509,"Jifeng","Jifeng","",50.46667,123,"P","PPL"
2036516,"Jiefangyingzi","Jiefangyingzi","Chieh-fang-ying-tzu,Jiefangyingzi",42.63167,119.20028,"P","PPL"
2036521,"Jibt","Jibt","Chih-pu-t'u,Chih-pu-t’u,Jibt",44.65,119.95,"P","PPL"
2036532,"Jiaolai He","Jiaolai He","Ao-lien Chiang,Chiao-lai Ho,Chiao-lien Ho,Jiaolai He",43.7,123.05,"H","STM"
2036548,"Jianhua","Jianhua","",43.78333,121.4,"P","PPL"
2036559,"Jiangjiayingzi","Jiangjiayingzi","Chiang-chia-ying-tzu,Jiangjiayingzi",42.23333,118.1,"P","PPL"
2036569,"Jianfeng Nongchang","Jianfeng Nongchang","Jianfeng Nongchang",41.16667,108.46667,"P","PPLF"
2036571,"Jianchangying","Jianchangying","Chien-ch'ang-ying,Chien-ch'ang-ying-tzu,Chien-ch’ang-ying,Chien-ch’ang-ying-tzu,Jianchangying",42.32333,119.37361,"P","PPL"
